{"address":{"apiKey":null,"streetAddress":"316 West Washington Avenue","latitude":43.07284,"longitude":-89.38811299999999,"city":"Madison","state":"WI","zip":"53703","aptNumber":null},"restaurants":[{"apiKey":"ee3f841c5988f406459c89af9c680205d30b6aeaa238f8d1","deliveryMin":10.00,"deliveryPrice":1.00,"logoUrl":"https://eatstreet-static.s3.amazonaws.com/assets/images/restaurant_logos/88-china-authentic-chinese-4631_1400537432746.png","name":"88 China - Authentic Chinese","streetAddress":"608 University Avenue","city":"Madison","state":"WI","zip":"53715","foodTypes":["Seafood","Chinese Food","Vegetarian","Asian Food","Rice","Pasta","Chicken","Soup"],"phone":"(608) 250-8888","latitude":43.0732908179745,"longitude":-89.3961805764666,"minFreeDelivery":-1.0000,"taxRate":0.0550,"acceptsCash":true,"acceptsCard":true,"offersPickup":true,"offersDelivery":true,"isTestRestaurant":false,"minWaitTime":45,"maxWaitTime":60,"open":false,"url":"https://eatstreet.com/madison-wi/restaurants/88-china-authentic-chinese","hours":{"Monday":["11:00 AM - 9:50 PM"],"Saturday":["11:00 AM - 9:50 PM"],"Sunday":["11:00 AM - 9:50 PM"],"Wednesday":["11:00 AM - 9:50 PM"],"Tuesday":["11:00 AM - 9:50 PM"],"Friday":["11:00 AM - 9:50 PM"],"Thursday":["11:00 AM - 9:50 PM"]},"timezone":"US/Central"},{"apiKey":"ee3f841c5988f406f15b4f2e73e7618003007bc326ca17fd","deliveryMin":10.00,"deliveryPrice":3.00,"logoUrl":"https://eatstreet-static.s3.amazonaws.com/assets/images/restaurant_logos/a-la-brasa-39503_1484275942057.png","name":"A La Brasa","streetAddress":"15 N Broom St","city":"Madison","state":"Wisconsin","zip":"53703","foodTypes":["Mexican"],"phone":"(608) 251-1700","latitude":43.07199,"longitude":-89.389176,"minFreeDelivery":0.00,"taxRate":0.0550,"acceptsCash":true,"acceptsCard":true,"offersPickup":true,"offersDelivery":true,"isTestRestaurant":false,"minWaitTime":45,"maxWaitTime":60,"open":false,"url":"https://eatstreet.com/madison-wi/restaurants/a-la-brasa-madison","hours":{"Monday":["11:00 AM - 10:00 PM"],"Saturday":["11:00 AM - 10:00 PM"],"Sunday":["11:00 AM - 9:00 PM"],"Wednesday":["11:00 AM - 10:00 PM"],"Tuesday":["11:00 AM - 10:00 PM"],"Friday":["11:00 AM - 10:00 PM"],"Thursday":["11:00 AM - 10:00 PM"]},"timezone":"US/Central"},{"apiKey":"ee3f841c5988f406884225aec137a02a64292000efff1fe8","deliveryMin":10.00,"deliveryPrice":1.00,"logoUrl":"https://eatstreet-static.s3.amazonaws.com/assets/images/restaurant_logos/a8-china-19_1413919447077.png","name":"A8 China","streetAddress":"608 University Avenue","city":"Madison","state":"WI","zip":"53715","foodTypes":["Seafood","Chinese Food","Pasta","Asian Food","Rice","Chicken","Soup"],"phone":"(608) 250-8888","latitude":43.0732908179745,"longitude":-89.3961805764666,"minFreeDelivery":-1.0000,"taxRate":0.0550,"acceptsCash":true,"acceptsCard":true,"offersPickup":true,"offersDelivery":true,"isTestRestaurant":false,"minWaitTime":45,"maxWaitTime":60,"open":false,"url":"https://eatstreet.com/madison-wi/restaurants/a8-china","hours":{"Monday":["11:00 AM - 10:30 PM"],"Saturday":["11:00 AM - 10:30 PM"],"Sunday":["11:00 AM - 10:30 PM"],"Wednesday":["11:00 AM - 10:30 PM"],"Tuesday":["11:00 AM - 10:30 PM"],"Friday":["11:00 AM - 10:30 PM"],"Thursday":["11:00 AM - 10:30 PM"]},"timezone":"US/Central"},{"apiKey":"ee3f841c5988f406f15b4f2e73e76180352ba8ebc4a6080e","deliveryMin":15.00,"deliveryPrice":3.00,"logoUrl":"https://eatstreet-static.s3.amazonaws.com/assets/images/restaurant_logos/angkor-wat-38932_1480361499625.png","name":"Angkor-Wat","streetAddress":"602 S Park Street","city":"Madison","state":"WI","zip":"53715","foodTypes":["Cambodian","Thai"],"phone":"(608) 422-5666","latitude":43.060814,"longitude":-89.401092,"minFreeDelivery":0.00,"taxRate":0.0550,"acceptsCash":false,"acceptsCard":true,"offersPickup":false,"offersDelivery":true,"isTestRestaurant":false,"minWaitTime":60,"maxWaitTime":75,"open":false,"url":"https://eatstreet.com/madison-wi/restaurants/angkor-wat-madison","hours":{"Monday":["11:00 AM - 9:45 PM"],"Saturday":["11:00 AM - 9:45 PM"],"Sunday":["11:00 AM - 9:45 PM"],"Wednesday":["11:00 AM - 9:45 PM"],"Tuesday":["11:00 AM - 9:45 PM"],"Friday":["11:00 AM - 9:45 PM"],"Thursday":["11:00 AM - 9:45 PM"]},"timezone":"US/Central"},{"apiKey":"ee3f841c5988f406144247b91fbcb2f3ae4243061cb57696","deliveryMin":15.00,"deliveryPrice":2.00,"logoUrl":"https://eatstreet-static.s3.amazonaws.com/assets/images/restaurant_logos/flaming-wok-26971_1423089511623.png","name":"Asian Flaming Wok","streetAddress":"4237 Lien Road","city":"Madison","state":"WI","zip":"53704","foodTypes":["Chinese Food","Asian Food","Fusion","Chinese"],"phone":"(608) 240-9185","latitude":43.1205802,"longitude":-89.3089688,"minFreeDelivery":0.00,"taxRate":0.0550,"acceptsCash":true,"acceptsCard":true,"offersPickup":true,"offersDelivery":true,"isTestRestaurant":false,"minWaitTime":45,"maxWaitTime":80,"open":false,"url":"https://eatstreet.com/madison-wi/restaurants/flaming-wok","hours":{"Monday":["11:00 AM - 12:00 AM"],"Saturday":["11:00 AM - 12:00 AM"],"Sunday":["12:00 PM - 12:00 AM"],"Wednesday":["11:00 AM - 12:00 AM"],"Tuesday":["11:00 AM - 12:00 AM"],"Friday":["11:00 AM - 12:00 AM"],"Thursday":["11:00 AM - 12:00 AM"]},"timezone":"US/Central"},{"apiKey":"ee3f841c5988f4068bafcde0589c806db253809184d24d76","deliveryMin":10.00,"deliveryPrice":1.00,"logoUrl":"https://eatstreet-static.s3.amazonaws.com/assets/images/restaurant_logos/asian-house-5311_1413920408751.png","name":"Asian House","streetAddress":"1 Dempsey Rd","city":"Madison","state":"WI","zip":"53714","foodTypes":["Seafood","Chinese Food","Asian Food","Rice","Chicken","Soup","Chinese"],"phone":"(608) 268-0005","latitude":43.097819,"longitude":-89.317382,"minFreeDelivery":-1.0000,"taxRate":0.0550,"acceptsCash":true,"acceptsCard":true,"offersPickup":true,"offersDelivery":true,"isTestRestaurant":false,"minWaitTime":60,"maxWaitTime":75,"open":false,"url":"https://eatstreet.com/madison-wi/restaurants/asian-house","hours":{"Monday":["11:00 AM - 9:30 PM"],"Saturday":["11:00 AM - 10:00 PM"],"Sunday":["11:00 AM - 9:30 PM"],"Wednesday":["11:00 AM - 9:30 PM"],"Friday":["11:00 AM - 10:00 PM"],"Thursday":["11:00 AM - 9:30 PM"]},"timezone":"US/Central"},{"apiKey":"ee3f841c5988f406884225aec137a02aaabab6ddb833833a","deliveryMin":10.00,"deliveryPrice":1.00,"logoUrl":"https://eatstreet-static.s3.amazonaws.com/assets/images/restaurant_logos/asian-kitchen-141_1413920716098.png","name":"Asian Kitchen","streetAddress":"449 State St","city":"Madison","state":"WI","zip":"53703","foodTypes":["Asian","Chinese","Soup","Chicken","Rice","Seafood"],"phone":"(608) 255-0571","latitude":43.0747155417683,"longitude":-89.3925295375852,"minFreeDelivery":0.00,"taxRate":0.0550,"acceptsCash":true,"acceptsCard":true,"offersPickup":true,"offersDelivery":true,"isTestRestaurant":false,"minWaitTime":40,"maxWaitTime":50,"open":true,"url":"https://eatstreet.com/madison-wi/restaurants/asian-kitchen","hours":{"Monday":["10:50 AM - 11:45 PM"],"Saturday":["10:50 AM - 2:45 AM"],"Sunday":["11:45 AM - 11:45 PM"],"Wednesday":["10:50 AM - 11:45 PM"],"Tuesday":["10:50 AM - 11:45 PM"],"Friday":["10:50 AM - 2:45 AM"],"Thursday":["10:50 AM - 11:45 PM"]},"timezone":"US/Central"},{"apiKey":"ee3f841c5988f406144247b91fbcb2f3ca21cb5686fccb26","deliveryMin":9.50,"deliveryPrice":1.50,"logoUrl":"https://eatstreet-static.s3.amazonaws.com/assets/images/restaurant_logos/athens-gyros-26_1359413630042.png","name":"Athens Gyros - Monroe St.","streetAddress":"1614 Monroe St","city":"Madison","state":"WI","zip":"53711","foodTypes":["Greek Food","Mediterranean Food","Subs & Sandwiches","Greek"],"phone":"(608) 259-1500","latitude":43.0671047245685,"longitude":-89.4139791466502,"minFreeDelivery":-1.0000,"taxRate":0.0550,"acceptsCash":false,"acceptsCard":true,"offersPickup":true,"offersDelivery":true,"isTestRestaurant":false,"minWaitTime":45,"maxWaitTime":60,"open":false,"url":"https://eatstreet.com/madison-wi/restaurants/athens-gyros","hours":{"Monday":["11:00 AM - 10:45 PM"],"Saturday":["11:00 AM - 10:45 PM"],"Sunday":["11:00 AM - 10:15 PM"],"Wednesday":["11:00 AM - 10:45 PM"],"Tuesday":["11:00 AM - 10:45 PM"],"Friday":["11:00 AM - 10:45 PM"],"Thursday":["11:00 AM - 10:45 PM"]},"timezone":"US/Central"},{"apiKey":"ee3f841c5988f406ab9b56a2a4d9fc149c69e773d7db3719","deliveryMin":15.00,"logoUrl":"https://eatstreet-static.s3.amazonaws.com/assets/images/restaurant_logos/bahn-thai-6389_1414084867405.png","name":"Bahn Thai","streetAddress":"944 Williamson St #4","city":"Madison","state":"WI","zip":"53703","foodTypes":["Seafood","Healthy Food","Thai Food","Soup","Thai"],"phone":"(608) 256-0202","latitude":43.080748,"longitude":-89.368427,"minFreeDelivery":-1.0000,"taxRate":0.0550,"acceptsCash":true,"acceptsCard":true,"offersPickup":true,"offersDelivery":false,"isTestRestaurant":false,"minWaitTime":90,"maxWaitTime":105,"open":false,"url":"https://eatstreet.com/madison-wi/restaurants/bahn-thai","hours":{},"timezone":"US/Central"},{"apiKey":"ee3f841c5988f406f15b4f2e73e76180a570010f3ab0a4c2","deliveryMin":10.00,"deliveryPrice":2.99,"logoUrl":"https://eatstreet-static.s3.amazonaws.com/assets/images/restaurant_logos/bandung-indonesian-restaurant-32_1455136960630.png","name":"Bandung Indonesian Restaurant","streetAddress":"600 Williamson St","city":"Madison","state":"WI","zip":"53703","foodTypes":["Seafood","Indonesian Food","Vegetarian","Asian Food","Fusion","Rice","Chicken","Indonesian"],"phone":"(608) 255-6910","latitude":43.07706779999999,"longitude":-89.37439999999998,"minFreeDelivery":-1.0000,"taxRate":0.0550,"acceptsCash":true,"acceptsCard":true,"offersPickup":true,"offersDelivery":true,"isTestRestaurant":false,"minWaitTime":60,"maxWaitTime":75,"open":false,"url":"https://eatstreet.com/madison-wi/restaurants/bandung-indonesian-restaurant","hours":{"Monday":["11:00 AM - 1:45 PM","5:00 PM - 8:45 PM"],"Saturday":["5:00 PM - 9:45 PM"],"Sunday":["5:00 PM - 8:45 PM"],"Wednesday":["11:00 AM - 1:45 PM","5:00 PM - 8:45 PM"],"Tuesday":["11:00 AM - 1:45 PM","5:00 PM - 8:45 PM"],"Friday":["11:00 AM - 1:45 PM","5:00 PM - 9:45 PM"],"Thursday":["11:00 AM - 1:45 PM","5:00 PM - 8:45 PM"]},"timezone":"US/Central"},{"apiKey":"ee3f841c5988f406144247b91fbcb2f399d83e9805fa954d","deliveryMin":10.00,"deliveryPrice":1.50,"logoUrl":"https://eatstreet-static.s3.amazonaws.com/assets/images/restaurant_logos/banzo-2983_1358442514108.png","name":"Banzo","streetAddress":"2105 Sherman Ave","city":"Madison","state":"WI","zip":"53704","foodTypes":["Subs & Sandwiches","Food Truck","Mediterranean Food","Healthy Food","Soup","Mediterranean","Food Trucks"],"phone":"(608) 441-2002","latitude":43.101524,"longitude":-89.364768,"minFreeDelivery":-1.0000,"taxRate":0.0550,"acceptsCash":true,"acceptsCard":true,"offersPickup":true,"offersDelivery":true,"isTestRestaurant":false,"minWaitTime":45,"maxWaitTime":60,"open":false,"url":"https://eatstreet.com/madison-wi/restaurants/banzo","hours":{"Monday":["11:00 AM - 8:45 PM"],"Saturday":["11:00 AM - 4:00 PM"],"Wednesday":["11:00 AM - 8:45 PM"],"Tuesday":["11:00 AM - 8:45 PM"],"Friday":["11:00 AM - 8:45 PM"],"Thursday":["11:00 AM - 8:45 PM"]},"timezone":"US/Central"},{"apiKey":"ee3f841c5988f406f15b4f2e73e76180c0d349c2a36ad8e1","deliveryMin":10.00,"deliveryPrice":1.50,"logoUrl":"https://eatstreet-static.s3.amazonaws.com/assets/images/restaurant_logos/banzo-shuk-35234_1453666109410.png","name":"Banzo Shuk","streetAddress":"1511 Williamson St","city":"Madison","state":"WI","zip":"53703","foodTypes":["Mediterranean Food","Mediterranean"],"phone":"(608) 441-0012","latitude":43.087428,"longitude":-89.358679,"minFreeDelivery":0.00,"taxRate":0.0550,"acceptsCash":true,"acceptsCard":true,"offersPickup":true,"offersDelivery":true,"isTestRestaurant":false,"minWaitTime":45,"maxWaitTime":60,"open":false,"url":"https://eatstreet.com/madison-wi/restaurants/banzo-shuk","hours":{"Saturday":["11:00 AM - 9:45 PM"],"Sunday":["11:00 AM - 7:45 PM"],"Wednesday":["5:00 PM - 9:45 PM"],"Tuesday":["5:00 PM - 9:45 PM"],"Friday":["5:00 PM - 9:45 PM"],"Thursday":["5:00 PM - 9:45 PM"]},"timezone":"US/Central"},{"apiKey":"ee3f841c5988f406f15b4f2e73e76180df6976551a1bff99","deliveryMin":10.00,"logoUrl":"https://eatstreet-static.s3.amazonaws.com/assets/images/restaurant_logos/bowl-of-heaven-39395_1482448141732.png","name":"Bowl of Heaven","streetAddress":"717 Hilldale Ct","city":"Madison","state":"WI","zip":"53703","foodTypes":["Healthy Foods","Smoothies","Juices","Breakfast","Vegetarian","Vegan","Gluten Free","Dairy Free"],"phone":"(608) 232-2233","latitude":43.0726946,"longitude":-89.4534421,"minFreeDelivery":0.00,"taxRate":0.0550,"acceptsCash":true,"acceptsCard":true,"offersPickup":true,"offersDelivery":false,"isTestRestaurant":false,"minWaitTime":45,"maxWaitTime":60,"open":false,"url":"https://eatstreet.com/madison-wi/restaurants/bowl-of-heaven","hours":{"Monday":["8:00 AM - 7:00 PM"],"Saturday":["8:00 AM - 7:00 PM"],"Sunday":["11:00 AM - 6:00 PM"],"Wednesday":["8:00 AM - 7:00 PM"],"Tuesday":["8:00 AM - 7:00 PM"],"Friday":["8:00 AM - 7:00 PM"],"Thursday":["8:00 AM - 7:00 PM"]},"timezone":"US/Central"},{"apiKey":"ee3f841c5988f406f15b4f2e73e76180c385bb206576bd5c","deliveryMin":10.00,"deliveryPrice":3.00,"logoUrl":"https://eatstreet-static.s3.amazonaws.com/assets/images/restaurant_logos/brickhouse-barbeque-39607_1485553998478.png","name":"Brickhouse Barbeque","streetAddress":"408 W Gorham St","city":"Madison","state":"WI","zip":"53703","foodTypes":["BBQ"],"phone":"(608) 257-7675","latitude":43.0740722,"longitude":-89.3953281,"minFreeDelivery":0.00,"taxRate":0.0550,"acceptsCash":true,"acceptsCard":true,"offersPickup":true,"offersDelivery":true,"isTestRestaurant":false,"minWaitTime":45,"maxWaitTime":60,"open":false,"url":"https://eatstreet.com/madison-wi/restaurants/brickhouse-barbeque","hours":{"Monday":["11:00 AM - 10:00 PM"],"Saturday":["11:00 AM - 10:00 PM"],"Sunday":["11:00 AM - 10:00 PM"],"Wednesday":["11:00 AM - 10:00 PM"],"Tuesday":["11:00 AM - 10:00 PM"],"Friday":["11:00 AM - 10:00 PM"],"Thursday":["11:00 AM - 10:00 PM"]},"timezone":"US/Central"},{"apiKey":"ee3f841c5988f406144247b91fbcb2f36d684e3abd58b0ef","deliveryMin":15.00,"deliveryPrice":6.48,"logoUrl":"https://eatstreet-static.s3.amazonaws.com/assets/images/restaurant_logos/burger-king-2853_1413918296956.png","name":"Burger King","streetAddress":"719 W Badger Rd","city":"Madison","state":"WI","zip":"53713","foodTypes":["Burgers","Fast Food"],"phone":"(512) 222-3152","latitude":43.0381071,"longitude":-89.39301929999999,"minFreeDelivery":0.00,"taxRate":0.0550,"acceptsCash":false,"acceptsCard":true,"offersPickup":false,"offersDelivery":true,"isTestRestaurant":false,"minWaitTime":45,"maxWaitTime":60,"open":false,"url":"https://eatstreet.com/madison-wi/restaurants/burger-king","hours":{"Monday":["11:00 AM - 9:00 PM"],"Saturday":["11:00 AM - 9:00 PM"],"Sunday":["11:00 AM - 9:00 PM"],"Wednesday":["11:00 AM - 9:00 PM"],"Tuesday":["11:00 AM - 9:00 PM"],"Friday":["11:00 AM - 9:00 PM"],"Thursday":["11:00 AM - 9:00 PM"]},"timezone":"US/Central"},{"apiKey":"ee3f841c5988f406144247b91fbcb2f31ad4d22dd99b94c4","deliveryMin":8.00,"deliveryPrice":1.00,"logoUrl":"https://eatstreet-static.s3.amazonaws.com/assets/images/restaurant_logos/burrito-drive-23_1414086412329.png","name":"Burrito Drive","streetAddress":"310 S Brearly St","city":"Madison","state":"WI","zip":"53703","foodTypes":["Mexican Food","Chicken","Mexican"],"phone":"(608) 260-8586","latitude":43.0812226639139,"longitude":-89.3686595607518,"minFreeDelivery":-1.0000,"taxRate":0.0550,"acceptsCash":true,"acceptsCard":true,"offersPickup":true,"offersDelivery":true,"isTestRestaurant":false,"minWaitTime":45,"maxWaitTime":60,"open":true,"url":"https://eatstreet.com/madison-wi/restaurants/burrito-drive","hours":{"Monday":["11:00 AM - 3:00 AM"],"Saturday":["11:00 AM - 3:00 AM"],"Sunday":["11:00 AM - 3:00 AM"],"Wednesday":["11:00 AM - 3:00 AM"],"Tuesday":["11:00 AM - 3:00 AM"],"Friday":["11:00 AM - 3:00 AM"],"Thursday":["11:00 AM - 3:00 AM"]},"timezone":"US/Central"},{"apiKey":"ee3f841c5988f406884225aec137a02a0320b34b47176fee","deliveryMin":12.00,"deliveryPrice":3.00,"logoUrl":"https://eatstreet-static.s3.amazonaws.com/assets/images/restaurant_logos/campus-biryani-and-gyros-15_1413911496496.png","name":"Campus Biryani and Gyros","streetAddress":"1437 Regent St","city":"Madison","state":"WI","zip":"53711","foodTypes":["Greek Food","Seafood","Middle Eastern Food","Mediterranean Food","Buffets","Indian Food","Indian"],"phone":"(608) 259-0786","latitude":43.0676740468549,"longitude":-89.4099413191554,"minFreeDelivery":-1.0000,"taxRate":0.0550,"acceptsCash":true,"acceptsCard":true,"offersPickup":true,"offersDelivery":true,"isTestRestaurant":false,"minWaitTime":40,"maxWaitTime":55,"open":true,"url":"https://eatstreet.com/madison-wi/restaurants/campus-biryani-and-gyros-madison","hours":{"Monday":["11:00 AM - 10:30 PM"],"Saturday":["11:30 AM - 3:30 AM"],"Sunday":["11:30 AM - 10:00 PM"],"Wednesday":["11:00 AM - 10:30 PM"],"Tuesday":["11:00 AM - 10:30 PM"],"Friday":["11:00 AM - 3:30 AM"],"Thursday":["11:00 AM - 10:30 PM"]},"timezone":"US/Central"},{"apiKey":"ee3f841c5988f406144247b91fbcb2f30b9aeec7d67287ea","logoUrl":"https://eatstreet-static.s3.amazonaws.com/assets/images/restaurant_logos/candinas-chocolatiers-26978_1423251959700.png","name":"Candinas Chocolatier","streetAddress":"11 W Main St","city":"Madison","state":"WI","zip":"53703","foodTypes":["Dessert","Chocolatiers & Shops"],"phone":"(608) 661-4303","latitude":43.073495,"longitude":-89.383252,"minFreeDelivery":0.00,"taxRate":0.0550,"acceptsCash":true,"acceptsCard":true,"offersPickup":true,"offersDelivery":false,"isTestRestaurant":false,"minWaitTime":45,"maxWaitTime":60,"open":false,"url":"https://eatstreet.com/madison-wi/restaurants/candinas-chocolatiers","hours":{"Monday":["10:30 AM - 5:30 PM"],"Saturday":["9:00 AM - 5:00 PM"],"Wednesday":["10:30 AM - 5:30 PM"],"Tuesday":["10:30 AM - 5:30 PM"],"Friday":["10:30 AM - 5:30 PM"],"Thursday":["10:30 AM - 5:30 PM"]},"timezone":"US/Central"},{"apiKey":"ee3f841c5988f406ab9b56a2a4d9fc142c23210f131a49e0","deliveryMin":10.00,"logoUrl":"https://eatstreet-static.s3.amazonaws.com/assets/images/restaurant_logos/capriottis-sandwich-shop-regent-st-6186_1414086898208.png","name":"Capriotti's Sandwich Shop - Regent St.","streetAddress":"902 Regent St","city":"Madison","state":"WI","zip":"53715","foodTypes":["Subs & Sandwiches","Healthy Food","Sandwiches"],"phone":"(608) 255-2227","latitude":43.067799,"longitude":-89.401427,"minFreeDelivery":-1.0000,"taxRate":0.0550,"acceptsCash":true,"acceptsCard":true,"offersPickup":true,"offersDelivery":false,"isTestRestaurant":false,"minWaitTime":75,"maxWaitTime":90,"open":false,"url":"https://eatstreet.com/madison-wi/restaurants/capriottis-sandwich-shop","hours":{"Monday":["11:00 AM - 7:30 PM"],"Saturday":["11:00 AM - 7:30 PM"],"Sunday":["11:00 AM - 5:30 PM"],"Wednesday":["11:00 AM - 7:30 PM"],"Tuesday":["11:00 AM - 7:30 PM"],"Friday":["11:00 AM - 7:30 PM"],"Thursday":["11:00 AM - 7:30 PM"]},"timezone":"US/Central"},{"apiKey":"ee3f841c5988f406f15b4f2e73e76180c41c09ebdcf628e9","deliveryMin":15.00,"deliveryPrice":5.00,"logoUrl":"https://eatstreet-static.s3.amazonaws.com/assets/images/restaurant_logos/casa-de-lara-39431_1483919546053.png","name":"Casa de Lara","streetAddress":"341 State Street","city":"Madison","state":"WI","zip":"53703","foodTypes":["Mexican"],"phone":"(608) 271-7200","latitude":43.074574,"longitude":-89.391576,"minFreeDelivery":0.00,"taxRate":0.0550,"acceptsCash":true,"acceptsCard":true,"offersPickup":true,"offersDelivery":true,"isTestRestaurant":false,"minWaitTime":45,"maxWaitTime":60,"open":false,"url":"https://eatstreet.com/madison-wi/restaurants/casa-de-lara-madison","hours":{"Monday":["11:00 AM - 8:30 PM"],"Saturday":["11:00 AM - 10:00 PM"],"Wednesday":["11:00 AM - 9:00 PM"],"Tuesday":["11:00 AM - 9:00 PM"],"Friday":["11:00 AM - 10:00 PM"],"Thursday":["11:00 AM - 9:00 PM"]},"timezone":"US/Central"},{"apiKey":"ee3f841c5988f406459c89af9c680205555d9ceb74576f2c","deliveryMin":10.00,"deliveryPrice":3.00,"logoUrl":"https://eatstreet-static.s3.amazonaws.com/assets/images/restaurant_logos/cheba-hut-40036_1487193097907.png","name":"Cheba Hut","streetAddress":"453 W Gilman St","city":"Madison","state":"WI","zip":"53703","foodTypes":["Subs","Sandwiches"],"phone":"(608) 819-8485","latitude":43.073506,"longitude":-89.394863,"minFreeDelivery":0.00,"taxRate":0.0550,"acceptsCash":false,"acceptsCard":true,"offersPickup":true,"offersDelivery":true,"isTestRestaurant":false,"minWaitTime":45,"maxWaitTime":60,"open":false,"url":"https://eatstreet.com/madison-wi/restaurants/cheba-hut-gilman","hours":{"Monday":["10:00 AM - 11:30 PM"],"Saturday":["10:00 AM - 2:30 AM"],"Sunday":["10:00 AM - 11:30 PM"],"Wednesday":["10:00 AM - 11:30 PM"],"Tuesday":["10:00 AM - 11:30 PM"],"Friday":["10:00 AM - 2:30 AM"],"Thursday":["10:00 AM - 11:30 PM"]},"timezone":"US/Central"},{"apiKey":"ee3f841c5988f406884225aec137a02aa1ae323c278a7f07","deliveryMin":10.00,"deliveryPrice":1.00,"logoUrl":"https://eatstreet-static.s3.amazonaws.com/assets/images/restaurant_logos/china-wok-107_1414089300340.png","name":"China Wok","streetAddress":"1724 Fordem Ave","city":"Madison","state":"WI","zip":"53704","foodTypes":["Seafood","Chinese Food","Asian Food","Rice","Healthy Food","Chicken","Soup","Chinese"],"phone":"(608) 240-9888","latitude":43.0945526331655,"longitude":-89.3636311509785,"minFreeDelivery":-1.0000,"taxRate":0.0550,"acceptsCash":true,"acceptsCard":true,"offersPickup":true,"offersDelivery":true,"isTestRestaurant":false,"minWaitTime":45,"maxWaitTime":60,"open":false,"url":"https://eatstreet.com/madison-wi/restaurants/china-wok","hours":{"Saturday":["10:45 AM - 10:20 PM"],"Sunday":["10:45 AM - 9:50 PM"],"Wednesday":["10:45 AM - 9:50 PM"],"Tuesday":["10:45 AM - 9:50 PM"],"Friday":["10:45 AM - 10:20 PM"],"Thursday":["10:45 AM - 9:50 PM"]},"timezone":"US/Central"},{"apiKey":"ee3f841c5988f406f15b4f2e73e761804eee210a9858dff0","deliveryMin":10.00,"logoUrl":"https://eatstreet-static.s3.amazonaws.com/assets/images/restaurant_logos/crandalls-peruvian-bistro-36583_1461180020246.png","name":"Crandall's Peruvian Bistro","streetAddress":"334 State St","city":"Madison","state":"WI","zip":"53703","foodTypes":["Latin American Food","Peruvian Food","Peruvian","Latin American"],"phone":"(608) 319-4053","latitude":43.074919,"longitude":-89.391026,"minFreeDelivery":0.00,"taxRate":0.0550,"acceptsCash":true,"acceptsCard":true,"offersPickup":true,"offersDelivery":false,"isTestRestaurant":false,"minWaitTime":45,"maxWaitTime":60,"open":false,"url":"https://eatstreet.com/madison-wi/restaurants/crandalls-peruvian-bistro","hours":{"Saturday":["10:00 AM - 9:00 PM"],"Sunday":["10:00 AM - 9:00 PM"],"Wednesday":["5:00 PM - 9:00 PM"],"Tuesday":["5:00 PM - 9:00 PM"],"Friday":["11:00 AM - 9:00 PM"],"Thursday":["5:00 PM - 9:00 PM"]},"timezone":"US/Central"},{"apiKey":"ee3f841c5988f406884225aec137a02a5292583a902b1690","deliveryMin":20.00,"logoUrl":"https://eatstreet-static.s3.amazonaws.com/assets/images/restaurant_logos/crostini-sandwiches-18382_1414091339503.png","name":"Crostini Sandwiches","streetAddress":"231 North St","city":"Madison","state":"WI","zip":"53704","foodTypes":["Subs & Sandwiches","Pasta","Gluten Free","Soup","Sandwiches","Gluten-Free","Salad"],"phone":"(608) 241-4284","latitude":43.102512,"longitude":-89.349982,"minFreeDelivery":0.00,"taxRate":0.0550,"acceptsCash":true,"acceptsCard":true,"offersPickup":true,"offersDelivery":true,"isTestRestaurant":false,"minWaitTime":60,"maxWaitTime":75,"open":false,"url":"https://eatstreet.com/madison-wi/restaurants/crostini-sandwiches","hours":{"Monday":["10:30 AM - 8:30 PM"],"Saturday":["11:00 AM - 8:00 PM"],"Wednesday":["10:30 AM - 8:30 PM"],"Tuesday":["10:30 AM - 8:30 PM"],"Friday":["10:30 AM - 8:30 PM"],"Thursday":["10:30 AM - 8:30 PM"]},"timezone":"US/Central"},{"apiKey":"ee3f841c5988f4068bafcde0589c806dabbd69f13da3d150","deliveryMin":15.00,"logoUrl":"https://eatstreet-static.s3.amazonaws.com/assets/images/restaurant_logos/culvers-5348_1414091551669.png","name":"Culver's","streetAddress":"2102 W Beltline Hwy","city":"Madison","state":"WI","zip":"53713","foodTypes":["American","Burger","Chicken","Ice Cream","Soup","Fast Food","Ice Cream & Frozen Yogurt"],"phone":"(608) 274-1221","latitude":43.036003,"longitude":-89.414928,"minFreeDelivery":-1.0000,"taxRate":0.0550,"acceptsCash":true,"acceptsCard":true,"offersPickup":true,"offersDelivery":false,"isTestRestaurant":false,"minWaitTime":45,"maxWaitTime":60,"open":true,"url":"https://eatstreet.com/madison-wi/restaurants/culvers","hours":{"Monday":["10:00 AM - 11:30 PM"],"Saturday":["10:00 AM - 11:30 PM"],"Sunday":["10:00 AM - 11:30 PM"],"Wednesday":["10:00 AM - 11:30 PM"],"Tuesday":["10:00 AM - 11:30 PM"],"Friday":["10:00 AM - 11:30 PM"],"Thursday":["10:00 AM - 11:30 PM"]},"timezone":"US/Central"},{"apiKey":"ee3f841c5988f4068bafcde0589c806d5e60eae05e63d5b4","deliveryMin":15.00,"deliveryPrice":3.99,"logoUrl":"https://eatstreet-static.s3.amazonaws.com/assets/images/restaurant_logos/curry-in-the-box-fitchburg-5705_1463687590150.png","name":"Curry in the Box - Fitchburg","streetAddress":"3050 Cahill Main #4","city":"Fitchburg","state":"WI","zip":"53711","foodTypes":["Pasta","Rice","Thai Food","Chicken","Indian Food","Indian","Thai"],"phone":"(608) 514-1919","latitude":43.021312,"longitude":-89.418959,"minFreeDelivery":-1.0000,"taxRate":0.0550,"acceptsCash":false,"acceptsCard":true,"offersPickup":true,"offersDelivery":true,"isTestRestaurant":false,"minWaitTime":45,"maxWaitTime":75,"open":false,"url":"https://eatstreet.com/madison-wi/restaurants/curry-in-the-box","hours":{"Monday":["10:30 AM - 8:45 PM"],"Saturday":["12:00 PM - 8:45 PM"],"Sunday":["11:00 AM - 8:15 PM"],"Wednesday":["10:30 AM - 8:45 PM"],"Tuesday":["10:30 AM - 8:45 PM"],"Friday":["10:30 AM - 8:45 PM"],"Thursday":["10:30 AM - 8:45 PM"]},"timezone":"US/Central"},{"apiKey":"ee3f841c5988f406f15b4f2e73e76180f1e4c77ca8b6a199","deliveryMin":15.00,"deliveryPrice":4.99,"logoUrl":"https://eatstreet-static.s3.amazonaws.com/assets/images/restaurant_logos/curry-in-the-box-university-ave-31479_1435196501553.png","name":"Curry in the Box - University Ave.","streetAddress":"3519 University Ave","city":"Madison","state":"WI","zip":"53705","foodTypes":["Asian Food","Thai Food","Indian Food","Indian","Thai"],"phone":"(608) 238-1900","latitude":43.074878,"longitude":-89.447618,"minFreeDelivery":0.00,"taxRate":0.0550,"acceptsCash":false,"acceptsCard":true,"offersPickup":true,"offersDelivery":true,"isTestRestaurant":false,"minWaitTime":45,"maxWaitTime":60,"open":false,"url":"https://eatstreet.com/madison-wi/restaurants/curry-in-the-box-university-ave","hours":{"Monday":["10:30 AM - 8:55 PM"],"Saturday":["11:00 AM - 8:55 PM"],"Sunday":["11:00 AM - 8:55 PM"],"Wednesday":["10:30 AM - 8:55 PM"],"Tuesday":["10:30 AM - 8:55 PM"],"Friday":["10:30 AM - 8:55 PM"],"Thursday":["10:30 AM - 8:55 PM"]},"timezone":"US/Central"},{"apiKey":"ee3f841c5988f406884225aec137a02aabf64b95a10273e5","deliveryMin":8.50,"deliveryPrice":2.50,"logoUrl":"https://eatstreet-static.s3.amazonaws.com/assets/images/restaurant_logos/dominos-pizza-106_1422639724390.png","name":"Domino's - Gorham St.","streetAddress":"409 W Gorham St","city":"Madison","state":"WI","zip":"53703","foodTypes":["Subs & Sandwiches","Wings","Pasta","Pizza","Italian Food","Late Night Food","Chicken Wings","Sandwiches"],"phone":"(608) 255-2222","latitude":43.0740281511831,"longitude":-89.3926356567311,"minFreeDelivery":-1.0000,"taxRate":0.0550,"acceptsCash":false,"acceptsCard":true,"offersPickup":true,"offersDelivery":true,"isTestRestaurant":false,"minWaitTime":90,"maxWaitTime":120,"open":true,"url":"https://eatstreet.com/madison-wi/restaurants/dominos-pizza","hours":{"Monday":["11:00 AM - 1:45 AM"],"Saturday":["11:00 AM - 2:45 AM"],"Sunday":["11:00 AM - 1:45 AM"],"Wednesday":["11:00 AM - 1:45 AM"],"Tuesday":["11:00 AM - 1:45 AM"],"Friday":["11:00 AM - 2:45 AM"],"Thursday":["11:00 AM - 2:45 AM"]},"timezone":"US/Central"},{"apiKey":"ee3f841c5988f406f15b4f2e73e761807a033a9a40418bc4","deliveryMin":15.00,"deliveryPrice":3.00,"logoUrl":"https://eatstreet-static.s3.amazonaws.com/assets/images/restaurant_logos/double-s-bbq-39426_1483884175865.png","name":"Double S BBQ","streetAddress":"1835 Monroe Street","city":"Madison","state":"WI","zip":"53711","foodTypes":["BBQ"],"phone":"(608) 886-8292","latitude":43.064913,"longitude":-89.416713,"minFreeDelivery":0.00,"taxRate":0.0550,"acceptsCash":true,"acceptsCard":true,"offersPickup":true,"offersDelivery":true,"isTestRestaurant":false,"minWaitTime":45,"maxWaitTime":60,"open":false,"url":"https://eatstreet.com/madison-wi/restaurants/double-s-bbq","hours":{"Saturday":["11:00 AM - 9:45 PM"],"Wednesday":["11:00 AM - 7:45 PM"],"Tuesday":["11:00 AM - 7:45 PM"],"Friday":["11:00 AM - 9:45 PM"],"Thursday":["11:00 AM - 7:45 PM"]},"timezone":"US/Central"},{"apiKey":"ee3f841c5988f4068bafcde0589c806de68eff228cafda64","deliveryMin":15.00,"deliveryPrice":2.00,"logoUrl":"https://eatstreet-static.s3.amazonaws.com/assets/images/restaurant_logos/dragon-i-5323_1414095811400.png","name":"Dragon I","streetAddress":"422 State St","city":"Madison","state":"WI","zip":"53703","foodTypes":["Chinese Food","Vegetarian","Asian Food","Vietnamese Food","Rice","Chicken","Soup"],"phone":"(608) 287-1551","latitude":43.074925,"longitude":-89.392117,"minFreeDelivery":-1.0000,"taxRate":0.0550,"acceptsCash":true,"acceptsCard":true,"offersPickup":true,"offersDelivery":true,"isTestRestaurant":false,"minWaitTime":45,"maxWaitTime":60,"open":false,"url":"https://eatstreet.com/madison-wi/restaurants/dragon-i","hours":{"Monday":["11:00 AM - 9:20 PM"],"Saturday":["11:00 AM - 9:20 PM"],"Sunday":["11:00 AM - 9:20 PM"],"Wednesday":["11:00 AM - 9:20 PM"],"Tuesday":["11:00 AM - 9:20 PM"],"Friday":["11:00 AM - 9:20 PM"],"Thursday":["11:00 AM - 9:20 PM"]},"timezone":"US/Central"},{"apiKey":"ee3f841c5988f406f15b4f2e73e761803d28f932283c41d8","deliveryMin":10.00,"deliveryPrice":2.99,"logoUrl":"https://eatstreet-static.s3.amazonaws.com/assets/images/restaurant_logos/easy-mart-convenience-store-37231_1473972508111.png","name":"Easy-Mart Convenience Store","streetAddress":"318 S Park St","city":"Madison","state":"WI","zip":"53715","foodTypes":["American","Convenience Stores"],"phone":"(608) 255-0600","latitude":43.063559,"longitude":-89.401301,"minFreeDelivery":0.00,"taxRate":0.0550,"acceptsCash":true,"acceptsCard":true,"offersPickup":true,"offersDelivery":true,"isTestRestaurant":false,"minWaitTime":20,"maxWaitTime":40,"open":true,"url":"https://eatstreet.com/madison-wi/restaurants/easy-mart-convenience-store-madison","hours":{"Monday":["9:45 AM - 2:50 AM"],"Saturday":["9:45 AM - 2:50 AM"],"Sunday":["9:45 AM - 2:50 AM"],"Wednesday":["9:45 AM - 2:50 AM"],"Tuesday":["9:45 AM - 2:50 AM"],"Friday":["9:45 AM - 2:50 AM"],"Thursday":["9:45 AM - 2:50 AM"]},"timezone":"US/Central"},{"apiKey":"ee3f841c5988f4068bafcde0589c806dbc7a2809ff85cccb","deliveryMin":10.00,"deliveryPrice":3.00,"logoUrl":"https://eatstreet-static.s3.amazonaws.com/assets/images/restaurant_logos/echo-tap-and-grill-5347_1414094288767.png","name":"Echo Tap and Grill","streetAddress":"554 W Main St","city":"Madison","state":"WI","zip":"53715","foodTypes":["Subs & Sandwiches","Bar/Pub Food","Burgers","Pizza","Italian Food","Healthy Food","American Food","Soup","Sports Bars","American (Traditional)"],"phone":"(608) 256-6928","latitude":43.068187,"longitude":-89.391421,"minFreeDelivery":-1.0000,"taxRate":0.0550,"acceptsCash":true,"acceptsCard":true,"offersPickup":true,"offersDelivery":true,"isTestRestaurant":false,"minWaitTime":60,"maxWaitTime":75,"open":true,"url":"https://eatstreet.com/madison-wi/restaurants/echo-tap-and-grill","hours":{"Monday":["5:00 PM - 11:30 PM"],"Saturday":["11:30 AM - 11:30 PM"],"Sunday":["11:30 AM - 11:30 PM"],"Wednesday":["5:00 PM - 11:30 PM"],"Tuesday":["5:00 PM - 11:30 PM"],"Friday":["5:00 PM - 11:30 PM"],"Thursday":["5:00 PM - 11:30 PM"]},"timezone":"US/Central"},{"apiKey":"ee3f841c5988f406144247b91fbcb2f30c237d4d3d265c40","deliveryMin":25.00,"logoUrl":"https://eatstreet-static.s3.amazonaws.com/assets/images/restaurant_logos/edo-japanese-restaurant-monona-20893_1414096181820.png","name":"Edo Garden","streetAddress":"6309 Monona Dr","city":"Monona","state":"WI","zip":"53716","foodTypes":["Japanese","Asian","Sushi","Rice","Salad","Soup","Seafood","Sushi Bars"],"phone":"(608) 226-9828","latitude":43.049728,"longitude":-89.325545,"minFreeDelivery":0.00,"taxRate":0.0550,"acceptsCash":true,"acceptsCard":true,"offersPickup":true,"offersDelivery":true,"isTestRestaurant":false,"minWaitTime":45,"maxWaitTime":60,"open":false,"url":"https://eatstreet.com/madison-wi/restaurants/edo-japanese-monona","hours":{"Monday":["10:30 AM - 10:00 PM"],"Saturday":["10:30 AM - 11:00 PM"],"Sunday":["12:00 PM - 10:00 PM"],"Wednesday":["10:30 AM - 10:00 PM"],"Tuesday":["10:30 AM - 10:00 PM"],"Friday":["10:30 AM - 11:00 PM"],"Thursday":["10:30 AM - 10:00 PM"]},"timezone":"US/Central"},{"apiKey":"ee3f841c5988f406f15b4f2e73e7618090f52541e1b74c18","deliveryMin":12.00,"deliveryPrice":1.00,"logoUrl":"https://eatstreet-static.s3.amazonaws.com/assets/images/restaurant_logos/edo-japanese-madison-3920_1414096139299.png","name":"Edo Japanese - Madison","streetAddress":"532 Park St","city":"Madison","state":"WI","zip":"53713","foodTypes":["Seafood","Japanese Food","Asian Food","Sushi","Rice","Healthy Food","Soup"],"phone":"(608) 268-0247","latitude":43.061169,"longitude":-89.40118799999999,"minFreeDelivery":-1.0000,"taxRate":0.0550,"acceptsCash":true,"acceptsCard":true,"offersPickup":true,"offersDelivery":true,"isTestRestaurant":false,"minWaitTime":45,"maxWaitTime":60,"open":true,"url":"https://eatstreet.com/madison-wi/restaurants/edo-japanese","hours":{"Monday":["10:30 AM - 12:30 AM"],"Saturday":["10:30 AM - 12:30 AM"],"Sunday":["10:30 AM - 12:30 AM"],"Wednesday":["10:30 AM - 12:30 AM"],"Tuesday":["10:30 AM - 12:30 AM"],"Friday":["10:30 AM - 12:30 AM"],"Thursday":["10:30 AM - 12:30 AM"]},"timezone":"US/Central"},{"apiKey":"ee3f841c5988f406f15b4f2e73e7618028e00398dfabdba2","deliveryMin":12.00,"deliveryPrice":3.00,"logoUrl":"https://eatstreet-static.s3.amazonaws.com/assets/images/restaurant_logos/el-pastor-36174_1459294069669.png","name":"El Pastor","streetAddress":"2010 S Park St","city":"Madison","state":"WI","zip":"53713","foodTypes":["Breakfast","Catering","Mexican"],"phone":"(608) 280-8898","latitude":43.044041,"longitude":-89.39446,"minFreeDelivery":0.00,"taxRate":0.0550,"acceptsCash":false,"acceptsCard":true,"offersPickup":true,"offersDelivery":true,"isTestRestaurant":false,"minWaitTime":30,"maxWaitTime":45,"open":false,"url":"https://eatstreet.com/madison-wi/restaurants/el-pastor-madison","hours":{"Monday":["11:00 AM - 10:00 PM"],"Saturday":["11:00 AM - 11:00 PM"],"Wednesday":["11:00 AM - 10:00 PM"],"Tuesday":["11:00 AM - 10:00 PM"],"Friday":["11:00 AM - 11:00 PM"],"Thursday":["11:00 AM - 10:00 PM"]},"timezone":"US/Central"},{"apiKey":"ee3f841c5988f406f15b4f2e73e76180f400b58bab0414dd","deliveryMin":10.00,"deliveryPrice":3.99,"logoUrl":"https://eatstreet-static.s3.amazonaws.com/assets/images/restaurant_logos/el-rancho-mexican-grill-39660_1486338986485.png","name":"El Rancho Mexican Grill","streetAddress":"819 South Park Street","city":"Madison","state":"WI","zip":"53715","foodTypes":["Mexican"],"phone":"(608) 284-9702","latitude":43.0588644,"longitude":-89.4022573,"minFreeDelivery":0.00,"taxRate":0.0550,"acceptsCash":true,"acceptsCard":true,"offersPickup":true,"offersDelivery":true,"isTestRestaurant":false,"minWaitTime":45,"maxWaitTime":60,"open":false,"url":"https://eatstreet.com/madison-wi/restaurants/el-rancho-mexican-grill","hours":{"Monday":["11:00 AM - 8:45 PM"],"Saturday":["11:00 AM - 9:45 PM"],"Sunday":["11:00 AM - 8:45 PM"],"Wednesday":["11:00 AM - 8:45 PM"],"Tuesday":["11:00 AM - 8:45 PM"],"Friday":["11:00 AM - 9:45 PM"],"Thursday":["11:00 AM - 8:45 PM"]},"timezone":"US/Central"},{"apiKey":"ee3f841c5988f4068bafcde0589c806ddd9cc72f03e5bb17","deliveryMin":5.00,"deliveryPrice":2.00,"logoUrl":"https://eatstreet-static.s3.amazonaws.com/assets/images/restaurant_logos/erbert-and-gerberts-5764_1372703499255.png","name":"Erbert & Gerbert's (University Ave)","streetAddress":"540 University Ave","city":"Madison","state":"WI","zip":"53703","foodTypes":["Subs & Sandwiches","American Food","Soup","Sandwiches"],"phone":"(608) 467-7309","latitude":43.073434,"longitude":-89.395694,"minFreeDelivery":-1.0000,"taxRate":0.0550,"acceptsCash":true,"acceptsCard":true,"offersPickup":true,"offersDelivery":true,"isTestRestaurant":false,"minWaitTime":15,"maxWaitTime":40,"open":true,"url":"https://eatstreet.com/madison-wi/restaurants/erbert-and-gerberts-university-ave","hours":{"Monday":["10:00 AM - 12:30 AM"],"Saturday":["10:00 AM - 2:30 AM"],"Sunday":["10:00 AM - 12:30 AM"],"Wednesday":["10:00 AM - 12:30 AM"],"Tuesday":["10:00 AM - 12:30 AM"],"Friday":["10:00 AM - 2:30 AM"],"Thursday":["10:00 AM - 2:30 AM"]},"timezone":"US/Central"},{"apiKey":"ee3f841c5988f406f15b4f2e73e76180020a7f51c325dc16","deliveryMin":12.00,"deliveryPrice":3.00,"logoUrl":"https://eatstreet-static.s3.amazonaws.com/assets/images/restaurant_logos/estacion-inka-35635_1455825085014.png","name":"Estacion Inka","streetAddress":"604 University Ave","city":"Madison","state":"WI","zip":"53715","foodTypes":["Subs & Sandwiches","Healthy Food","Peruvian Food","Peruvian","Sandwiches","Salad"],"phone":"(608) 467-3010","latitude":43.073443,"longitude":-89.396016,"minFreeDelivery":0.00,"taxRate":0.0550,"acceptsCash":false,"acceptsCard":true,"offersPickup":true,"offersDelivery":true,"isTestRestaurant":false,"minWaitTime":25,"maxWaitTime":45,"open":false,"url":"https://eatstreet.com/madison-wi/restaurants/estacion-inka","hours":{"Monday":["11:00 AM - 8:45 PM"],"Saturday":["11:00 AM - 9:45 PM"],"Sunday":["11:00 AM - 8:45 PM"],"Wednesday":["11:00 AM - 8:45 PM"],"Tuesday":["11:00 AM - 8:45 PM"],"Friday":["11:00 AM - 9:45 PM"],"Thursday":["11:00 AM - 8:45 PM"]},"timezone":"US/Central"},{"apiKey":"ee3f841c5988f406884225aec137a02ad513f2c3a11d7507","deliveryMin":10.00,"deliveryPrice":2.00,"logoUrl":"https://eatstreet-static.s3.amazonaws.com/assets/images/restaurant_logos/falbo-bros-pizzeria-madison-140_1490275577111.png","name":"Falbo Bros. Pizzeria - Madison","streetAddress":"406 S Park St","city":"Madison","state":"WI","zip":"53715","foodTypes":["Wings","Pizza","Italian Food","Healthy Food"],"phone":"(608) 255-9090","latitude":43.0629867837828,"longitude":-89.4008508692087,"minFreeDelivery":-1.0000,"taxRate":0.0550,"acceptsCash":true,"acceptsCard":true,"offersPickup":true,"offersDelivery":true,"isTestRestaurant":false,"minWaitTime":35,"maxWaitTime":50,"open":true,"url":"https://eatstreet.com/madison-wi/restaurants/falbo-bros-pizzeria-madison","hours":{"Monday":["10:00 AM - 2:50 AM"],"Saturday":["11:00 AM - 3:50 AM"],"Sunday":["11:00 AM - 2:50 AM"],"Wednesday":["10:00 AM - 2:50 AM"],"Tuesday":["10:00 AM - 2:50 AM"],"Friday":["10:00 AM - 3:50 AM"],"Thursday":["10:00 AM - 3:20 AM"]},"timezone":"US/Central"},{"apiKey":"ee3f841c5988f4068bafcde0589c806dcf8e1ca5abfe142e","deliveryMin":15.00,"deliveryPrice":6.48,"logoUrl":"https://eatstreet-static.s3.amazonaws.com/assets/images/restaurant_logos/famous-daves-5114_1405619753951.png","name":"Famous Dave's","streetAddress":"900 South Park Street","city":"Madison","state":"WI","zip":"53715","foodTypes":["BBQ","Barbeque"],"phone":"(512) 222-3152","latitude":43.0578391,"longitude":-89.400108,"minFreeDelivery":0.00,"taxRate":0.0550,"acceptsCash":false,"acceptsCard":true,"offersPickup":false,"offersDelivery":true,"isTestRestaurant":false,"minWaitTime":45,"maxWaitTime":60,"open":false,"url":"https://eatstreet.com/madison-wi/restaurants/famous-daves-madison","hours":{"Monday":["11:00 AM - 9:00 PM"],"Saturday":["11:00 AM - 10:00 PM"],"Sunday":["11:00 AM - 9:00 PM"],"Wednesday":["11:00 AM - 9:00 PM"],"Tuesday":["11:00 AM - 9:00 PM"],"Friday":["11:00 AM - 10:00 PM"],"Thursday":["11:00 AM - 9:00 PM"]},"timezone":"US/Central"},{"apiKey":"ee3f841c5988f406884225aec137a02a5b70a8d4d82be351","deliveryMin":15.00,"deliveryPrice":6.48,"logoUrl":"https://eatstreet-static.s3.amazonaws.com/assets/images/restaurant_logos/firehouse-subs-15931_1415031311480.png","name":"Firehouse Subs - Emil St","streetAddress":"1403 Emil St","city":"Madison","state":"WI","zip":"53713","foodTypes":["Subs & Sandwiches","Deli","Fast Food","Sandwiches","Delis"],"phone":"(512) 222-3152","latitude":43.0366101,"longitude":-89.4068348,"minFreeDelivery":0.00,"taxRate":0.0550,"acceptsCash":false,"acceptsCard":true,"offersPickup":false,"offersDelivery":true,"isTestRestaurant":false,"minWaitTime":45,"maxWaitTime":60,"open":false,"url":"https://eatstreet.com/madison-wi/restaurants/firehouse-subs","hours":{"Monday":["11:00 AM - 7:45 PM"],"Saturday":["11:00 AM - 7:45 PM"],"Sunday":["11:00 AM - 7:45 PM"],"Wednesday":["11:00 AM - 7:45 PM"],"Tuesday":["11:00 AM - 7:45 PM"],"Friday":["11:00 AM - 7:45 PM"],"Thursday":["11:00 AM - 7:45 PM"]},"timezone":"US/Central"},{"apiKey":"ee3f841c5988f406f15b4f2e73e7618053bca26b8a8f552e","deliveryMin":10.00,"deliveryPrice":3.00,"logoUrl":"https://eatstreet-static.s3.amazonaws.com/assets/images/restaurant_logos/five-star-korean-bbq-38653_1478555383560.png","name":"Five Star Korean BBQ","streetAddress":"605 E. Washington Ave.","city":"Madison","state":"WI","zip":"53703","foodTypes":["Korean","BBQ","Barbeque"],"phone":"(608) 630-9840","latitude":43.078561,"longitude":-89.37806,"minFreeDelivery":0.00,"taxRate":0.0550,"acceptsCash":true,"acceptsCard":true,"offersPickup":true,"offersDelivery":true,"isTestRestaurant":false,"minWaitTime":45,"maxWaitTime":60,"open":false,"url":"https://eatstreet.com/madison-wi/restaurants/five-star-korean-bbq","hours":{"Monday":["11:00 AM - 10:00 PM"],"Saturday":["11:00 AM - 10:00 PM"],"Wednesday":["11:00 AM - 10:00 PM"],"Tuesday":["11:00 AM - 10:00 PM"],"Friday":["11:00 AM - 10:00 PM"],"Thursday":["11:00 AM - 10:00 PM"]},"timezone":"US/Central"},{"apiKey":"ee3f841c5988f406f15b4f2e73e761803ddced1641431418","deliveryMin":20.00,"deliveryPrice":3.50,"logoUrl":"https://eatstreet-static.s3.amazonaws.com/assets/images/restaurant_logos/forage-kitchen-34767_1450112725749.png","name":"Forage Kitchen","streetAddress":"665 State St.","city":"Madison","zip":"53703","foodTypes":["Healthy Food","Smoothies & Juices","Salad","Juice Bars & Smoothies"],"phone":"(608) 286-1455","latitude":43.074878,"longitude":-89.397056,"minFreeDelivery":0.00,"taxRate":0.0550,"acceptsCash":false,"acceptsCard":true,"offersPickup":true,"offersDelivery":true,"isTestRestaurant":false,"minWaitTime":25,"maxWaitTime":40,"open":false,"url":"https://eatstreet.com/madison-wi/restaurants/forage-kitchen-madison","hours":{"Monday":["11:00 AM - 2:45 PM"],"Saturday":["11:00 AM - 3:00 PM"],"Sunday":["11:00 AM - 7:45 PM"],"Wednesday":["11:00 AM - 7:45 PM"],"Tuesday":["11:00 AM - 7:45 PM"],"Friday":["11:00 AM - 7:45 PM"],"Thursday":["11:00 AM - 7:45 PM"]},"timezone":"US/Central"},{"apiKey":"ee3f841c5988f4068bafcde0589c806d895baf8b473aba29","logoUrl":"https://eatstreet-static.s3.amazonaws.com/assets/images/restaurant_logos/franciscos-cantina-5102_1415031846180.png","name":"Francisco's Cantina","streetAddress":"121 E Main St","city":"Madison","state":"WI","zip":"53703","foodTypes":["Mexican Food","Healthy Food"],"phone":"(608) 294-1100","latitude":43.075057,"longitude":-89.380993,"minFreeDelivery":-1.0000,"taxRate":0.0550,"acceptsCash":true,"acceptsCard":true,"offersPickup":true,"offersDelivery":false,"isTestRestaurant":false,"minWaitTime":45,"maxWaitTime":60,"open":true,"url":"https://eatstreet.com/madison-wi/restaurants/franciscos-cantina-madison","hours":{"Monday":["11:00 AM - 10:00 PM"],"Saturday":["11:00 AM - 12:00 AM"],"Wednesday":["11:00 AM - 10:00 PM"],"Tuesday":["11:00 AM - 10:00 PM"],"Friday":["11:00 AM - 12:00 AM"],"Thursday":["11:00 AM - 10:00 PM"]},"timezone":"US/Central"},{"apiKey":"ee3f841c5988f406da325d7782b35bdb26de1679db53f418","deliveryMin":15.00,"deliveryPrice":6.48,"logoUrl":"https://eatstreet-static.s3.amazonaws.com/assets/images/restaurant_logos/franciscos-cantina-7046_1415032060667.png","name":"Francisco's Cantina","streetAddress":"121 E Main St","city":"Madison","state":"WI","zip":"53703","foodTypes":["Mexican Food","Mexican"],"phone":"(512) 222-3152","latitude":43.0750544,"longitude":-89.3810002,"minFreeDelivery":0.00,"taxRate":0.0550,"acceptsCash":false,"acceptsCard":true,"offersPickup":false,"offersDelivery":true,"isTestRestaurant":false,"minWaitTime":45,"maxWaitTime":60,"open":false,"url":"https://eatstreet.com/madison-wi/restaurants/franciscos-cantina","hours":{"Monday":["11:00 AM - 10:00 PM"],"Saturday":["11:00 AM - 10:30 PM"],"Wednesday":["11:00 AM - 10:00 PM"],"Tuesday":["11:00 AM - 10:00 PM"],"Friday":["11:00 AM - 10:30 PM"],"Thursday":["11:00 AM - 10:00 PM"]},"timezone":"US/Central"},{"apiKey":"ee3f841c5988f406144247b91fbcb2f3879b6d50984c3c12","deliveryMin":15.00,"deliveryPrice":6.48,"logoUrl":"https://eatstreet-static.s3.amazonaws.com/assets/images/restaurant_logos/fromagination-2659_1405619803298.png","name":"Fromagination","streetAddress":"12 S Carroll St","city":"Madison","state":"WI","zip":"53703","foodTypes":["Cheese Shops","Deli","Subs & Sandwiches","Sandwiches","Cheese Tasting Classes"],"phone":"(512) 222-3152","latitude":43.0733776,"longitude":-89.3850765,"minFreeDelivery":0.00,"taxRate":0.0550,"acceptsCash":false,"acceptsCard":true,"offersPickup":false,"offersDelivery":true,"isTestRestaurant":false,"minWaitTime":45,"maxWaitTime":60,"open":false,"url":"https://eatstreet.com/madison-wi/restaurants/fromagination","hours":{"Monday":["11:00 AM - 2:00 PM"],"Saturday":["11:00 AM - 2:00 PM"],"Wednesday":["11:00 AM - 2:00 PM"],"Tuesday":["11:00 AM - 2:00 PM"],"Friday":["11:00 AM - 2:00 PM"],"Thursday":["11:00 AM - 2:00 PM"]},"timezone":"US/Central"},{"apiKey":"ee3f841c5988f406da325d7782b35bdb37aaa573bd63c2a6","deliveryMin":15.00,"deliveryPrice":2.00,"logoUrl":"https://eatstreet-static.s3.amazonaws.com/assets/images/restaurant_logos/fugu-asian-fusion-7837_1415032785173.png","name":"Fugu Asian Fusion","streetAddress":"411 W Gilman St","city":"Madison","state":"WI","zip":"53703","foodTypes":["Seafood","Chinese Food","Vegetarian","Asian Food","Fusion","Rice","Pasta","Chicken","Soup","Asian Fusion","Dim Sum","Thai"],"phone":"(608) 286-7277","latitude":43.074349,"longitude":-89.393575,"minFreeDelivery":0.00,"taxRate":0.0550,"acceptsCash":true,"acceptsCard":true,"offersPickup":true,"offersDelivery":true,"isTestRestaurant":false,"minWaitTime":45,"maxWaitTime":60,"open":false,"url":"https://eatstreet.com/madison-wi/restaurants/fugu-asian-fusion","hours":{"Monday":["11:00 AM - 10:00 PM"],"Saturday":["11:00 AM - 10:00 PM"],"Sunday":["12:00 PM - 9:30 PM"],"Wednesday":["11:00 AM - 10:00 PM"],"Tuesday":["11:00 AM - 10:00 PM"],"Friday":["11:00 AM - 10:00 PM"],"Thursday":["11:00 AM - 10:00 PM"]},"timezone":"US/Central"},{"apiKey":"ee3f841c5988f406144247b91fbcb2f3f8befd275795a0c7","deliveryMin":10.00,"deliveryPrice":3.00,"logoUrl":"https://eatstreet-static.s3.amazonaws.com/assets/images/restaurant_logos/glass-nickel-pizza-co-east-21_1415035128339.png","name":"Glass Nickel Pizza Co. - East","streetAddress":"2916 Atwood Ave","city":"Madison","state":"WI","zip":"53704","foodTypes":["Subs & Sandwiches","Seafood","Wings","Pasta","Pizza","Healthy Food","Ice Cream & Frozen Yogurt","Sandwiches","Pasta Shops"],"phone":"(608) 245-0880","latitude":43.0939488018899,"longitude":-89.3415388425739,"minFreeDelivery":-1.0000,"taxRate":0.0550,"acceptsCash":true,"acceptsCard":true,"offersPickup":true,"offersDelivery":true,"isTestRestaurant":false,"minWaitTime":60,"maxWaitTime":75,"open":true,"url":"https://eatstreet.com/madison-wi/restaurants/glass-nickel-pizza-co-east","hours":{"Monday":["10:30 AM - 12:15 AM"],"Saturday":["10:30 AM - 12:45 AM"],"Sunday":["10:30 AM - 10:45 PM"],"Wednesday":["10:30 AM - 12:15 AM"],"Tuesday":["10:30 AM - 12:15 AM"],"Friday":["10:30 AM - 1:45 AM"],"Thursday":["10:30 AM - 1:15 AM"]},"timezone":"US/Central"},{"apiKey":"ee3f841c5988f406f15b4f2e73e76180a3572bd39b6c2629","deliveryMin":8.00,"deliveryPrice":3.00,"logoUrl":"https://eatstreet-static.s3.amazonaws.com/assets/images/restaurant_logos/glaze-teriyaki-38633_1478555261899.png","name":"Glaze Teriyaki","streetAddress":"563 State Street","city":"Madison","state":"WI","zip":"53703","foodTypes":["Japanese","Fast Food","Asian Fusion"],"phone":"(608) 467-9303","latitude":43.074765,"longitude":-89.395439,"minFreeDelivery":0.00,"taxRate":0.0550,"acceptsCash":false,"acceptsCard":true,"offersPickup":false,"offersDelivery":true,"isTestRestaurant":false,"minWaitTime":20,"maxWaitTime":40,"open":false,"url":"https://eatstreet.com/madison-wi/restaurants/glaze-teriyaki-madison","hours":{"Monday":["11:00 AM - 9:45 PM"],"Saturday":["12:00 PM - 9:45 PM"],"Sunday":["12:00 PM - 9:45 PM"],"Wednesday":["11:00 AM - 9:45 PM"],"Tuesday":["11:00 AM - 9:45 PM"],"Friday":["11:00 AM - 9:45 PM"],"Thursday":["11:00 AM - 9:45 PM"]},"timezone":"US/Central"},{"apiKey":"ee3f841c5988f406f15b4f2e73e76180aa536e436db5465c","deliveryMin":7.98,"deliveryPrice":2.99,"logoUrl":"https://eatstreet-static.s3.amazonaws.com/assets/images/restaurant_logos/global-noodle-31019_1444765478064.png","name":"Global Noodle","streetAddress":"600 Williamson St","city":"Madison","state":"WI","zip":"53703","foodTypes":["Seafood","Indonesian Food","Vegetarian","Asian Food","Rice","Chicken"],"phone":"(608) 255-5580","latitude":43.0762442621616,"longitude":-89.3754157375348,"minFreeDelivery":-1.0000,"taxRate":0.0550,"acceptsCash":true,"acceptsCard":true,"offersPickup":true,"offersDelivery":true,"isTestRestaurant":false,"minWaitTime":60,"maxWaitTime":75,"open":false,"url":"https://eatstreet.com/madison-wi/restaurants/global-noodle","hours":{"Monday":["11:00 AM - 1:45 PM","5:00 PM - 8:45 PM"],"Saturday":["5:00 PM - 9:45 PM"],"Sunday":["5:00 PM - 8:45 PM"],"Wednesday":["11:00 AM - 1:45 PM","5:00 PM - 8:45 PM"],"Tuesday":["11:00 AM - 1:45 PM","5:00 PM - 8:45 PM"],"Friday":["11:00 AM - 1:45 PM","5:00 PM - 9:45 PM"],"Thursday":["11:00 AM - 1:45 PM","5:00 PM - 8:45 PM"]},"timezone":"US/Central"},{"apiKey":"ee3f841c5988f406144247b91fbcb2f39f462f33df3cf6f0","deliveryMin":15.00,"deliveryPrice":6.48,"logoUrl":"https://eatstreet-static.s3.amazonaws.com/assets/images/restaurant_logos/good-food-cart-20207_1415033960328.png","name":"Good Food Cart","streetAddress":"33 E Main St","city":"Madison","state":"WI","zip":"53703","foodTypes":["Sandwich","Street Vendors","Sandwiches"],"phone":"(512) 222-3152","latitude":43.0742493,"longitude":-89.3819979,"minFreeDelivery":0.00,"taxRate":0.0550,"acceptsCash":false,"acceptsCard":true,"offersPickup":false,"offersDelivery":true,"isTestRestaurant":false,"minWaitTime":45,"maxWaitTime":60,"open":false,"url":"https://eatstreet.com/madison-wi/restaurants/good-food-cart","hours":{"Monday":["11:00 AM - 1:30 PM"],"Wednesday":["11:00 AM - 1:30 PM"],"Tuesday":["11:00 AM - 1:30 PM"],"Thursday":["11:00 AM - 1:30 PM"]},"timezone":"US/Central"},{"apiKey":"ee3f841c5988f406f15b4f2e73e761808fb8fe733ba66501","deliveryMin":8.00,"deliveryPrice":3.00,"logoUrl":"https://eatstreet-static.s3.amazonaws.com/assets/images/restaurant_logos/gooseberry-on-the-square-38057_1474323489238.png","name":"Gooseberry on the Square","streetAddress":"1 S Pinckney St.","city":"Madison","state":"WI","zip":"53703","foodTypes":["Subs & Sandwiches","American Food","Healthy Food","Breakfast","Sandwiches","Salad","American (Traditional)"],"phone":"(608) 467-6552","latitude":43.075493,"longitude":-89.382102,"minFreeDelivery":0.00,"taxRate":0.0550,"acceptsCash":false,"acceptsCard":true,"offersPickup":true,"offersDelivery":true,"isTestRestaurant":false,"minWaitTime":45,"maxWaitTime":60,"open":false,"url":"https://eatstreet.com/madison-wi/restaurants/gooseberry-on-the-square-madison","hours":{"Monday":["11:00 AM - 4:30 PM"],"Wednesday":["11:00 AM - 4:30 PM"],"Tuesday":["11:00 AM - 4:30 PM"],"Friday":["11:00 AM - 4:30 PM"],"Thursday":["11:00 AM - 4:30 PM"]},"timezone":"US/Central"},{"apiKey":"ee3f841c5988f406ab9b56a2a4d9fc14313bd9620ecb90c4","deliveryMin":10.00,"deliveryPrice":1.00,"logoUrl":"https://eatstreet-static.s3.amazonaws.com/assets/images/restaurant_logos/great-china-6372_1415034821025.png","name":"Great China","streetAddress":"619 N Sherman Ave","city":"Madison","state":"WI","zip":"53704","foodTypes":["Seafood","Chinese Food","Asian Food","Sushi","Rice","Healthy Food","Chicken","Soup","Chinese"],"phone":"(608) 244-9988","latitude":43.107947,"longitude":-89.363855,"minFreeDelivery":-1.0000,"taxRate":0.0550,"acceptsCash":true,"acceptsCard":true,"offersPickup":true,"offersDelivery":true,"isTestRestaurant":false,"minWaitTime":45,"maxWaitTime":60,"open":false,"url":"https://eatstreet.com/madison-wi/restaurants/great-china-madison","hours":{"Monday":["11:00 AM - 9:30 PM"],"Saturday":["11:00 AM - 10:25 PM"],"Sunday":["11:00 AM - 9:30 PM"],"Wednesday":["11:00 AM - 9:30 PM"],"Friday":["11:00 AM - 10:25 PM"],"Thursday":["11:00 AM - 9:30 PM"]},"timezone":"US/Central"},{"apiKey":"ee3f841c5988f4068bafcde0589c806d27483e82aa19b4bd","deliveryMin":10.00,"deliveryPrice":2.00,"logoUrl":"https://eatstreet-static.s3.amazonaws.com/assets/images/restaurant_logos/happy-wok-2409-w-broadway-monona-5191_1415036623151.png","name":"Happy Wok - 2409 W Broadway, Monona","streetAddress":"2409 W Broadway","city":"Monona","state":"WI","zip":"53713","foodTypes":["Seafood","Chinese Food","Asian Food","Rice","Chicken","Soup","Chinese"],"phone":"(608) 221-1661","latitude":43.046397,"longitude":-89.3515,"minFreeDelivery":-1.0000,"taxRate":0.0550,"acceptsCash":true,"acceptsCard":true,"offersPickup":true,"offersDelivery":true,"isTestRestaurant":false,"minWaitTime":30,"maxWaitTime":45,"open":false,"url":"https://eatstreet.com/madison-wi/restaurants/happy-wok-w-broadway","hours":{"Monday":["10:30 AM - 10:00 PM"],"Saturday":["10:30 AM - 10:30 PM"],"Sunday":["10:30 AM - 10:00 PM"],"Wednesday":["10:30 AM - 10:00 PM"],"Tuesday":["10:30 AM - 10:00 PM"],"Friday":["10:30 AM - 10:30 PM"],"Thursday":["10:30 AM - 10:00 PM"]},"timezone":"US/Central"},{"apiKey":"ee3f841c5988f406f15b4f2e73e76180a67f5770859ee027","deliveryMin":15.00,"deliveryPrice":6.48,"logoUrl":"https://eatstreet-static.s3.amazonaws.com/assets/images/restaurant_logos/himal-chuli-3108_1405619854938.png","name":"Himal Chuli","streetAddress":"318 State St","city":"Madison","state":"WI","zip":"53703","foodTypes":["Himalayan & Nepalese Food","Himalayan/Nepalese"],"phone":"(512) 222-3152","latitude":43.0748014,"longitude":-89.3906964,"minFreeDelivery":0.00,"taxRate":0.0550,"acceptsCash":false,"acceptsCard":true,"offersPickup":false,"offersDelivery":true,"isTestRestaurant":false,"minWaitTime":45,"maxWaitTime":60,"open":false,"url":"https://eatstreet.com/madison-wi/restaurants/himal-chuli","hours":{"Saturday":["11:00 AM - 8:00 PM"],"Sunday":["12:00 PM - 8:00 PM"],"Wednesday":["11:00 AM - 8:00 PM"],"Tuesday":["11:00 AM - 8:00 PM"],"Friday":["11:00 AM - 8:00 PM"],"Thursday":["11:00 AM - 8:00 PM"]},"timezone":"US/Central"},{"apiKey":"ee3f841c5988f4068bafcde0589c806d35e5e3d6cdd891ee","deliveryMin":12.00,"deliveryPrice":1.50,"logoUrl":"https://eatstreet-static.s3.amazonaws.com/assets/images/restaurant_logos/hong-kong-cafe-5550_1415037122089.png","name":"Hong Kong Cafe","streetAddress":"2 S Mills St","city":"Madison","state":"WI","zip":"53715","foodTypes":["Seafood","Chinese Food","Pasta","Asian Food","Rice","Healthy Food","Chicken","Soup","Chinese"],"phone":"(608) 259-1668","latitude":43.067554,"longitude":-89.404317,"minFreeDelivery":-1.0000,"taxRate":0.0550,"acceptsCash":false,"acceptsCard":true,"offersPickup":true,"offersDelivery":true,"isTestRestaurant":false,"minWaitTime":40,"maxWaitTime":60,"open":false,"url":"https://eatstreet.com/madison-wi/restaurants/hong-kong-cafe","hours":{"Monday":["11:00 AM - 2:30 PM","3:30 PM - 8:15 PM"],"Saturday":["11:00 AM - 9:15 PM"],"Sunday":["11:00 AM - 8:15 PM"],"Wednesday":["11:00 AM - 2:30 PM","3:30 PM - 8:15 PM"],"Tuesday":["11:00 AM - 2:30 PM","3:30 PM - 8:15 PM"],"Friday":["11:00 AM - 2:30 PM","3:30 PM - 9:15 PM"],"Thursday":["11:00 AM - 2:30 PM","3:30 PM - 8:15 PM"]},"timezone":"US/Central"},{"apiKey":"ee3f841c5988f406884225aec137a02ab84fdd43a392bfbc","logoUrl":"https://eatstreet-static.s3.amazonaws.com/assets/images/restaurant_logos/hong-kong-station-11785_1399062168763.png","name":"Hong Kong Chili","streetAddress":"1441 Regent St","city":"Madison","state":"WI","zip":"53711","foodTypes":["Seafood","Chinese Food","Vegetarian","Asian Food","Rice","Chicken","Soup"],"phone":"(608) 661-8288","latitude":43.067569,"longitude":-89.410727,"minFreeDelivery":0.00,"taxRate":0.0550,"acceptsCash":true,"acceptsCard":true,"offersPickup":true,"offersDelivery":false,"isTestRestaurant":false,"minWaitTime":45,"maxWaitTime":75,"open":false,"url":"https://eatstreet.com/madison-wi/restaurants/hong-kong-chili","hours":{"Saturday":["11:00 AM - 9:30 PM"],"Sunday":["11:00 AM - 9:30 PM"],"Wednesday":["11:00 AM - 9:30 PM"],"Tuesday":["11:00 AM - 9:30 PM"],"Friday":["11:00 AM - 9:30 PM"],"Thursday":["11:00 AM - 9:30 PM"]},"timezone":"US/Central"},{"apiKey":"ee3f841c5988f406f15b4f2e73e761806097fd5ca518596c","deliveryMin":15.00,"deliveryPrice":6.48,"logoUrl":"https://eatstreet-static.s3.amazonaws.com/assets/images/restaurant_logos/ihop-3106_1405620039319.png","name":"IHOP","streetAddress":"2825 University Ave","city":"Madison","state":"WI","zip":"53705","foodTypes":["Breakfast","American Food","Breakfast & Brunch","American (Traditional)"],"phone":"(512) 222-3152","latitude":43.0741404,"longitude":-89.43742569999999,"minFreeDelivery":0.00,"taxRate":0.0550,"acceptsCash":false,"acceptsCard":true,"offersPickup":false,"offersDelivery":true,"isTestRestaurant":false,"minWaitTime":45,"maxWaitTime":60,"open":false,"url":"https://eatstreet.com/madison-wi/restaurants/ihop-2825-university-ave","hours":{"Monday":["11:00 AM - 9:30 PM"],"Saturday":["5:15 PM - 9:30 PM"],"Sunday":["5:45 PM - 9:30 PM"],"Wednesday":["11:00 AM - 9:30 PM"],"Tuesday":["11:00 AM - 9:30 PM"],"Friday":["11:00 AM - 9:30 PM"],"Thursday":["11:00 AM - 9:30 PM"]},"timezone":"US/Central"},{"apiKey":"ee3f841c5988f406884225aec137a02ac3a94c74da03f8a4","deliveryMin":10.00,"deliveryPrice":3.00,"logoUrl":"https://eatstreet-static.s3.amazonaws.com/assets/images/restaurant_logos/ians-pizza-104_1358444822870.png","name":"Ian's Pizza","streetAddress":"100 State St","city":"Madison","state":"WI","zip":"53703","foodTypes":["Gluten Free","Pizza","Healthy Food","Ice Cream & Frozen Yogurt"],"phone":"(608) 257-9248","latitude":43.0746365814082,"longitude":-89.3865007742397,"minFreeDelivery":-1.0000,"taxRate":0.0550,"acceptsCash":true,"acceptsCard":true,"offersPickup":true,"offersDelivery":true,"isTestRestaurant":false,"minWaitTime":60,"maxWaitTime":75,"open":true,"url":"https://eatstreet.com/madison-wi/restaurants/ians-pizza","hours":{"Monday":["11:00 AM - 2:30 AM"],"Saturday":["11:00 AM - 2:30 AM"],"Sunday":["11:00 AM - 2:30 AM"],"Wednesday":["11:00 AM - 2:30 AM"],"Tuesday":["11:00 AM - 2:30 AM"],"Friday":["11:00 AM - 2:30 AM"],"Thursday":["11:00 AM - 2:30 AM"]},"timezone":"US/Central"},{"apiKey":"ee3f841c5988f4068bafcde0589c806d26b29fc28582d43a","deliveryMin":15.00,"deliveryPrice":2.00,"logoUrl":"https://eatstreet-static.s3.amazonaws.com/assets/images/restaurant_logos/ichiban-sichuan-5322_1415038016382.png","name":"Ichiban Sichuan","streetAddress":"610 S Park St","city":"Madison","state":"WI","zip":"53713","foodTypes":["Chinese Food","Chinese"],"phone":"(608) 819-8808","latitude":43.060635,"longitude":-89.40113,"minFreeDelivery":-1.0000,"taxRate":0.0550,"acceptsCash":true,"acceptsCard":true,"offersPickup":true,"offersDelivery":true,"isTestRestaurant":false,"minWaitTime":45,"maxWaitTime":60,"open":false,"url":"https://eatstreet.com/madison-wi/restaurants/ichiban-szechuan","hours":{"Monday":["11:00 AM - 10:00 PM"],"Saturday":["11:00 AM - 10:30 PM"],"Sunday":["12:00 PM - 10:00 PM"],"Wednesday":["11:00 AM - 10:00 PM"],"Tuesday":["11:00 AM - 10:00 PM"],"Friday":["11:00 AM - 10:30 PM"],"Thursday":["11:00 AM - 10:00 PM"]},"timezone":"US/Central"},{"apiKey":"ee3f841c5988f406fe2bbabe6b94d9a600b10b071fbb2561","deliveryMin":6.00,"deliveryPrice":2.00,"logoUrl":"https://eatstreet-static.s3.amazonaws.com/assets/images/restaurant_logos/itzza-pizza-8135_1391124783653.png","name":"Itzza Pizza","streetAddress":"2825 University Ave","city":"Madison","state":"WI","zip":"54311","foodTypes":["Subs & Sandwiches","Pizza","Wings","Pasta","Italian Food","Healthy Food","Italian","Sandwiches"],"phone":"(608) 233-3500","latitude":43.0741404,"longitude":-89.43742569999999,"minFreeDelivery":0.00,"taxRate":0.0550,"acceptsCash":true,"acceptsCard":true,"offersPickup":true,"offersDelivery":true,"isTestRestaurant":false,"minWaitTime":60,"maxWaitTime":75,"open":true,"url":"https://eatstreet.com/madison-wi/restaurants/itzza-pizza","hours":{"Monday":["3:00 PM - 3:00 AM"],"Saturday":["11:00 AM - 3:00 AM"],"Sunday":["3:00 PM - 3:00 AM"],"Wednesday":["11:00 AM - 3:00 AM"],"Tuesday":["11:00 AM - 3:00 AM"],"Friday":["11:00 AM - 3:00 AM"],"Thursday":["11:00 AM - 3:00 AM"]},"timezone":"US/Central"},{"apiKey":"ee3f841c5988f406884225aec137a02a1ad4d22dd99b94c4","deliveryMin":10.00,"deliveryPrice":1.00,"logoUrl":"https://eatstreet-static.s3.amazonaws.com/assets/images/restaurant_logos/jade-garden-13_1358444859521.png","name":"Jade Garden","streetAddress":"1109 S Park St","city":"Madison","state":"WI","zip":"53715","foodTypes":["Chinese Food","Vegetarian","Asian Food","Buffets","Rice","Healthy Food","Chicken","Soup","Chinese"],"phone":"(608) 260-9890","latitude":43.0560342438963,"longitude":-89.3979890932216,"minFreeDelivery":-1.0000,"taxRate":0.0550,"acceptsCash":true,"acceptsCard":true,"offersPickup":true,"offersDelivery":true,"isTestRestaurant":false,"minWaitTime":30,"maxWaitTime":45,"open":false,"url":"https://eatstreet.com/madison-wi/restaurants/jade-garden","hours":{"Saturday":["11:00 AM - 10:30 PM"],"Sunday":["11:30 AM - 10:00 PM"],"Wednesday":["11:00 AM - 10:00 PM"],"Tuesday":["11:00 AM - 10:00 PM"],"Friday":["11:00 AM - 10:30 PM"],"Thursday":["11:00 AM - 10:00 PM"]},"timezone":"US/Central"},{"apiKey":"ee3f841c5988f406144247b91fbcb2f365359e7126e37222","deliveryMin":15.00,"deliveryPrice":6.48,"logoUrl":"https://eatstreet-static.s3.amazonaws.com/assets/images/restaurant_logos/jamerica-caribbean-restaurant-2660_1415038365002.png","name":"Jamerica Caribbean Restaurant","streetAddress":"1236 Williamson St","city":"Madison","state":"WI","zip":"53703","foodTypes":["Caribbean Food","Caribbean"],"phone":"(512) 222-3152","latitude":43.0841702,"longitude":-89.36336370000001,"minFreeDelivery":0.00,"taxRate":0.0550,"acceptsCash":false,"acceptsCard":true,"offersPickup":false,"offersDelivery":true,"isTestRestaurant":false,"minWaitTime":45,"maxWaitTime":60,"open":false,"url":"https://eatstreet.com/madison-wi/restaurants/jamerica-caribbean-restaurant","hours":{"Monday":["11:00 AM - 2:15 PM","5:00 PM - 9:00 PM"],"Saturday":["11:00 AM - 2:15 PM","5:00 PM - 9:00 PM"],"Sunday":["4:00 PM - 9:00 PM"],"Wednesday":["11:00 AM - 2:15 PM","5:00 PM - 9:00 PM"],"Tuesday":["11:00 AM - 2:15 PM","5:00 PM - 9:00 PM"],"Friday":["11:00 AM - 2:15 PM","5:00 PM - 9:00 PM"],"Thursday":["11:00 AM - 2:15 PM","5:00 PM - 9:00 PM"]},"timezone":"US/Central"},{"apiKey":"ee3f841c5988f406f15b4f2e73e76180a0694a21d46aa2ca","deliveryMin":10.00,"deliveryPrice":2.50,"logoUrl":"https://eatstreet-static.s3.amazonaws.com/assets/images/restaurant_logos/luigis-36519_1464992822294.png","name":"Luigi's","streetAddress":"515 S Midvale Blvd","city":"Madison","state":"WI","zip":"53711","foodTypes":["Pizza","Italian Food","Italian"],"phone":"(608) 661-7663","latitude":43.054895,"longitude":-89.45042,"minFreeDelivery":0.00,"taxRate":0.0550,"acceptsCash":false,"acceptsCard":true,"offersPickup":true,"offersDelivery":true,"isTestRestaurant":false,"minWaitTime":45,"maxWaitTime":60,"open":false,"url":"https://eatstreet.com/madison-wi/restaurants/luigis-madison","hours":{"Monday":["5:00 PM - 8:15 PM"],"Saturday":["5:00 PM - 9:15 PM"],"Sunday":["5:00 PM - 8:15 PM"],"Wednesday":["5:00 PM - 8:15 PM"],"Tuesday":["5:00 PM - 8:15 PM"],"Friday":["5:00 PM - 9:15 PM"],"Thursday":["5:00 PM - 8:15 PM"]},"timezone":"US/Central"},{"apiKey":"ee3f841c5988f406f15b4f2e73e76180e6092a7ca70c23c0","deliveryMin":10.00,"logoUrl":"https://eatstreet-static.s3.amazonaws.com/assets/images/restaurant_logos/madistan-38129_1475693980063.png","name":"Madistan","streetAddress":"317 N Bassett St","city":"Madison","state":"WI","zip":"53703","foodTypes":["","Mediterranean","Pakistani","Halal"],"phone":"(608) 422-5422","latitude":43.073062,"longitude":-89.393542,"minFreeDelivery":0.00,"taxRate":0.0550,"acceptsCash":true,"acceptsCard":true,"offersPickup":true,"offersDelivery":false,"isTestRestaurant":false,"minWaitTime":45,"maxWaitTime":60,"open":false,"url":"https://eatstreet.com/madison-wi/restaurants/madistan","hours":{"Monday":["11:00 AM - 9:00 PM"],"Wednesday":["11:00 AM - 9:00 PM"],"Tuesday":["11:00 AM - 9:00 PM"],"Friday":["11:00 AM - 3:00 PM"],"Thursday":["11:00 AM - 9:00 PM"]},"timezone":"US/Central"},{"apiKey":"ee3f841c5988f406f15b4f2e73e76180c88e8b0f3a95601c","deliveryMin":10.00,"logoUrl":"https://eatstreet-static.s3.amazonaws.com/assets/images/restaurant_logos/magic-wok-31215_1434193323670.png","name":"Magic Wok","streetAddress":"2044 Atwood Ave","city":"Madison","state":"WI","zip":"53704","foodTypes":["Chinese Food","Chinese"],"phone":"(608) 244-7869","latitude":43.092529,"longitude":-89.353845,"minFreeDelivery":0.00,"taxRate":0.0550,"acceptsCash":true,"acceptsCard":true,"offersPickup":true,"offersDelivery":true,"isTestRestaurant":false,"minWaitTime":45,"maxWaitTime":60,"open":false,"url":"https://eatstreet.com/madison-wi/restaurants/magic-wok-madison","hours":{"Saturday":["11:00 AM - 10:00 PM"],"Sunday":["12:00 PM - 9:00 PM"],"Wednesday":["11:00 AM - 9:00 PM"],"Tuesday":["11:00 AM - 9:00 PM"],"Friday":["11:00 AM - 10:00 PM"],"Thursday":["11:00 AM - 9:00 PM"]},"timezone":"US/Central"},{"apiKey":"ee3f841c5988f406f15b4f2e73e761809b6c097dfca7d589","deliveryMin":15.00,"deliveryPrice":2.00,"logoUrl":"https://eatstreet-static.s3.amazonaws.com/assets/images/restaurant_logos/maharani-restaurant-34731_1449678014450.png","name":"Maharani Restaurant","streetAddress":"380 W Washington Ave","city":"Madison","state":"WI","zip":"53703","foodTypes":["Pakistani Food","Indian Food","Indian","Pakistani"],"phone":"(608) 251-9999","latitude":43.071914,"longitude":-89.389124,"minFreeDelivery":0.00,"taxRate":0.0550,"acceptsCash":true,"acceptsCard":true,"offersPickup":true,"offersDelivery":true,"isTestRestaurant":false,"minWaitTime":35,"maxWaitTime":55,"open":false,"url":"https://eatstreet.com/madison-wi/restaurants/maharani-restaurant","hours":{"Monday":["11:30 AM - 3:00 PM","5:00 PM - 10:00 PM"],"Saturday":["11:30 AM - 3:00 PM","5:00 PM - 10:00 PM"],"Sunday":["11:30 AM - 3:00 PM","5:00 PM - 10:00 PM"],"Wednesday":["11:30 AM - 3:00 PM","5:00 PM - 10:00 PM"],"Tuesday":["11:30 AM - 3:00 PM","5:00 PM - 10:00 PM"],"Friday":["11:30 AM - 3:00 PM","5:00 PM - 10:00 PM"],"Thursday":["11:30 AM - 3:00 PM","5:00 PM - 10:00 PM"]},"timezone":"US/Central"},{"apiKey":"ee3f841c5988f406f15b4f2e73e7618092ae6dd72be66df3","deliveryMin":6.00,"deliveryPrice":0.00,"logoUrl":"https://eatstreet-static.s3.amazonaws.com/assets/images/restaurant_logos/milios-sandwiches-regent-35525_1455146155803.png","name":"Milio's Sandwiches - E. Campus Mall","streetAddress":"377 E Campus Mall","city":"Madison","state":"WI","zip":"53703","foodTypes":["Subs & Sandwiches","Sandwiches"],"phone":"(608) 251-8444","latitude":43.073568,"longitude":-89.395482,"minFreeDelivery":0.00,"taxRate":0.0550,"acceptsCash":true,"acceptsCard":true,"offersPickup":true,"offersDelivery":true,"isTestRestaurant":false,"minWaitTime":35,"maxWaitTime":45,"open":false,"url":"https://eatstreet.com/madison-wi/restaurants/milios-e-campus-mall","hours":{"Monday":["10:00 AM - 9:00 PM"],"Saturday":["10:00 AM - 9:00 PM"],"Sunday":["10:00 AM - 9:00 PM"],"Wednesday":["10:00 AM - 9:00 PM"],"Tuesday":["10:00 AM - 9:00 PM"],"Friday":["10:00 AM - 9:00 PM"],"Thursday":["10:00 AM - 9:00 PM"]},"timezone":"US/Central"},{"apiKey":"ee3f841c5988f406f15b4f2e73e761808fc135e9b83238b7","deliveryMin":6.00,"logoUrl":"https://eatstreet-static.s3.amazonaws.com/assets/images/restaurant_logos/milios-sandwiches-regent-35525_1455146155803.png","name":"Milio's Sandwiches - Regent","streetAddress":"2145 Regent St","city":"Madison","state":"WI","zip":"53726","foodTypes":["Subs & Sandwiches","Sandwiches"],"phone":"(608) 233-3233","latitude":43.06774619999999,"longitude":-89.4236282,"minFreeDelivery":0.00,"taxRate":0.0550,"acceptsCash":true,"acceptsCard":true,"offersPickup":true,"offersDelivery":true,"isTestRestaurant":false,"minWaitTime":35,"maxWaitTime":45,"open":true,"url":"https://eatstreet.com/madison-wi/restaurants/milios-regent","hours":{"Monday":["11:00 AM - 2:45 AM"],"Saturday":["11:00 AM - 2:45 AM"],"Sunday":["11:00 AM - 2:45 AM"],"Wednesday":["11:00 AM - 2:45 AM"],"Tuesday":["11:00 AM - 2:45 AM"],"Friday":["11:00 AM - 2:45 AM"],"Thursday":["11:00 AM - 2:45 AM"]},"timezone":"US/Central"},{"apiKey":"ee3f841c5988f406f15b4f2e73e761804a2accbb999acfd5","logoUrl":"https://eatstreet-static.s3.amazonaws.com/assets/images/restaurant_logos/mirch-masala-39688_1486681645847.png","name":"Mirch Masala","streetAddress":"449 State St","city":"Madison","state":"Wisconsin","zip":"53703","foodTypes":["Indian"],"phone":"(608) 665-3667","latitude":43.074513,"longitude":-89.393366,"minFreeDelivery":0.00,"taxRate":0.0550,"acceptsCash":true,"acceptsCard":true,"offersPickup":true,"offersDelivery":false,"isTestRestaurant":false,"minWaitTime":45,"maxWaitTime":60,"open":false,"url":"https://eatstreet.com/madison-wi/restaurants/mirch-masala-state-st","hours":{"Monday":["11:30 AM - 10:00 PM"],"Saturday":["11:30 AM - 10:00 PM"],"Sunday":["11:30 AM - 10:00 PM"],"Wednesday":["11:30 AM - 10:00 PM"],"Tuesday":["11:30 AM - 10:00 PM"],"Friday":["11:30 AM - 10:00 PM"],"Thursday":["11:30 AM - 10:00 PM"]},"timezone":"US/Central"},{"apiKey":"ee3f841c5988f406144247b91fbcb2f34dcad570a89e494c","deliveryMin":15.00,"deliveryPrice":6.48,"logoUrl":"https://eatstreet-static.s3.amazonaws.com/assets/images/restaurant_logos/mirch-masala-20108_1415041150933.png","name":"Mirch Masala","streetAddress":"449 State Street","city":"Madison","state":"WI","zip":"53703","foodTypes":["Indian","Himalayan/Nepalese"],"phone":"(512) 222-3152","latitude":43.0745126,"longitude":-89.3933663,"minFreeDelivery":0.00,"taxRate":0.0550,"acceptsCash":false,"acceptsCard":true,"offersPickup":false,"offersDelivery":true,"isTestRestaurant":false,"minWaitTime":45,"maxWaitTime":60,"open":false,"url":"https://eatstreet.com/madison-wi/restaurants/mirch-masala-madison","hours":{"Saturday":["11:00 AM - 9:30 PM"],"Sunday":["11:00 AM - 9:30 PM"],"Wednesday":["11:00 AM - 9:30 PM"],"Tuesday":["11:00 AM - 9:30 PM"],"Friday":["11:00 AM - 9:30 PM"],"Thursday":["11:00 AM - 9:30 PM"]},"timezone":"US/Central"},{"apiKey":"ee3f841c5988f406884225aec137a02a97a07cea41613857","deliveryMin":15.00,"deliveryPrice":6.48,"logoUrl":"https://eatstreet-static.s3.amazonaws.com/assets/images/restaurant_logos/monsoon-siam-17291_1408912673794.png","name":"Monsoon Siam","streetAddress":"2045 Atwood Ave","city":"Madison","state":"WI","zip":"53704","foodTypes":["Bar/Pub Food","Thai Food","Soup"],"phone":"(512) 222-3152","latitude":43.0920677,"longitude":-89.3535131,"minFreeDelivery":0.00,"taxRate":0.0550,"acceptsCash":false,"acceptsCard":true,"offersPickup":false,"offersDelivery":true,"isTestRestaurant":false,"minWaitTime":45,"maxWaitTime":60,"open":false,"url":"https://eatstreet.com/madison-wi/restaurants/monsoon-siam","hours":{"Monday":["11:00 AM - 2:30 PM","5:00 PM - 8:45 PM"],"Saturday":["5:00 PM - 8:45 PM"],"Sunday":["5:00 PM - 8:45 PM"],"Wednesday":["11:00 AM - 2:30 PM","5:00 PM - 8:45 PM"],"Tuesday":["11:00 AM - 2:30 PM","5:00 PM - 8:45 PM"],"Friday":["11:00 AM - 2:30 PM","5:00 PM - 8:45 PM"],"Thursday":["11:00 AM - 2:30 PM","5:00 PM - 8:45 PM"]},"timezone":"US/Central"},{"apiKey":"ee3f841c5988f406144247b91fbcb2f3ad3e90faa9f7d537","deliveryMin":15.00,"logoUrl":"https://eatstreet-static.s3.amazonaws.com/assets/images/restaurant_logos/monsoon-siam-21329_1408912694172.png","name":"Monsoon Siam","streetAddress":"2045 Atwood Ave","city":"Madison","state":"WI","zip":"53704","foodTypes":["Vegetarian","Bar/Pub Food","Rice","Thai Food","Pasta","Soup","Indian Food"],"phone":"(608) 284-9282","latitude":43.092144,"longitude":-89.353532,"minFreeDelivery":0.00,"taxRate":0.0550,"acceptsCash":true,"acceptsCard":true,"offersPickup":true,"offersDelivery":true,"isTestRestaurant":false,"minWaitTime":45,"maxWaitTime":60,"open":false,"url":"https://eatstreet.com/madison-wi/restaurants/monsoon-siam-madison","hours":{"Monday":["11:00 AM - 2:30 PM","5:00 PM - 8:30 PM"],"Saturday":["12:00 PM - 2:30 PM","5:00 PM - 9:30 PM"],"Sunday":["6:00 PM - 9:00 PM"],"Wednesday":["11:00 AM - 2:30 PM","5:00 PM - 8:30 PM"],"Tuesday":["11:00 AM - 2:30 PM","5:00 PM - 8:30 PM"],"Friday":["11:00 AM - 2:30 PM","5:00 PM - 9:30 PM"],"Thursday":["11:00 AM - 2:30 PM","5:00 PM - 8:30 PM"]},"timezone":"US/Central"},{"apiKey":"ee3f841c5988f406f15b4f2e73e761801a46a9352d45b879","deliveryMin":12.00,"deliveryPrice":3.00,"logoUrl":"https://eatstreet-static.s3.amazonaws.com/assets/images/restaurant_logos/mooyah-burger-madison-36731_1462304301225.png","name":"Mooyah Burgers, Fries, Shakes","streetAddress":"571 State Street","city":"Madison","state":"WI","zip":"53703","foodTypes":["Burgers","Healthy Food","American Food","Salad","Hot Dogs"],"phone":"(608) 285-9293","latitude":43.074769,"longitude":-89.395287,"minFreeDelivery":0.00,"taxRate":0.0550,"acceptsCash":false,"acceptsCard":true,"offersPickup":false,"offersDelivery":true,"isTestRestaurant":false,"minWaitTime":30,"maxWaitTime":50,"open":false,"url":"https://eatstreet.com/madison-wi/restaurants/mooyah-burgers-fries-shakes","hours":{"Monday":["11:00 AM - 9:45 PM"],"Saturday":["11:00 AM - 9:45 PM"],"Sunday":["11:00 AM - 9:45 PM"],"Wednesday":["11:00 AM - 9:45 PM"],"Tuesday":["11:00 AM - 9:45 PM"],"Friday":["11:00 AM - 9:45 PM"],"Thursday":["11:00 AM - 9:45 PM"]},"timezone":"US/Central"},{"apiKey":"ee3f841c5988f406f15b4f2e73e7618092a95e8c13ceb55c","deliveryMin":8.00,"deliveryPrice":3.00,"logoUrl":"https://eatstreet-static.s3.amazonaws.com/assets/images/restaurant_logos/naf-naf-grill-37914_1473251694306.png","name":"Naf Naf Grill","streetAddress":"555 State St.","city":"Madison","zip":"53703","foodTypes":[],"phone":"(608) 286-1242","latitude":43.074777,"longitude":-89.395081,"minFreeDelivery":0.00,"taxRate":0.0550,"acceptsCash":false,"acceptsCard":true,"offersPickup":false,"offersDelivery":true,"isTestRestaurant":false,"minWaitTime":20,"maxWaitTime":40,"open":false,"url":"https://eatstreet.com/madison-wi/restaurants/naf-naf-grill-madison","hours":{"Monday":["11:00 AM - 9:45 PM"],"Saturday":["11:00 AM - 9:45 PM"],"Sunday":["11:00 AM - 9:45 PM"],"Wednesday":["11:00 AM - 9:45 PM"],"Tuesday":["11:00 AM - 9:45 PM"],"Friday":["11:00 AM - 9:45 PM"],"Thursday":["11:00 AM - 9:45 PM"]},"timezone":"US/Central"},{"apiKey":"ee3f841c5988f406144247b91fbcb2f30320b34b47176fee","deliveryMin":15.00,"deliveryPrice":0.95,"logoUrl":"https://eatstreet-static.s3.amazonaws.com/assets/images/restaurant_logos/nams-noodle-and-karaoke-bar-25_1415041928625.png","name":"Nams Noodle and Karaoke Bar","streetAddress":"1336 Regent St","city":"Madison","state":"WI","zip":"53715","foodTypes":["Chinese Food","Vegetarian","Asian Food","Vietnamese Food","Fusion","Pasta","Chicken","Soup","Noodles"],"phone":"(608) 287-0475","latitude":43.0678377550402,"longitude":-89.4079354942727,"minFreeDelivery":-1.0000,"taxRate":0.0550,"acceptsCash":true,"acceptsCard":true,"offersPickup":true,"offersDelivery":true,"isTestRestaurant":false,"minWaitTime":45,"maxWaitTime":60,"open":false,"url":"https://eatstreet.com/madison-wi/restaurants/nams-noodle-and-karaoke-bar","hours":{"Monday":["11:00 AM - 9:30 PM"],"Saturday":["11:00 AM - 9:30 PM"],"Sunday":["11:30 AM - 9:30 PM"],"Wednesday":["11:00 AM - 9:30 PM"],"Tuesday":["11:00 AM - 9:30 PM"],"Friday":["11:00 AM - 9:30 PM"],"Thursday":["11:00 AM - 9:30 PM"]},"timezone":"US/Central"},{"apiKey":"ee3f841c5988f406f15b4f2e73e76180d8e0b9c02743a7e7","deliveryMin":12.00,"logoUrl":"https://eatstreet-static.s3.amazonaws.com/assets/images/restaurant_logos/naples-15-37243_1467923483298.png","name":"Naples 15","streetAddress":"15 N Butler St","city":"Madison","state":"WI","zip":"53703","foodTypes":["Pizza","Italian Food","Italian"],"phone":"(608) 250-6330","latitude":43.077247,"longitude":-89.381609,"minFreeDelivery":0.00,"taxRate":0.0550,"acceptsCash":true,"acceptsCard":true,"offersPickup":true,"offersDelivery":false,"isTestRestaurant":false,"minWaitTime":45,"maxWaitTime":60,"open":false,"url":"https://eatstreet.com/madison-wi/restaurants/naples-15","hours":{"Monday":["5:00 PM - 10:00 PM"],"Saturday":["5:00 PM - 11:00 PM"],"Wednesday":["5:00 PM - 10:00 PM"],"Tuesday":["5:00 PM - 10:00 PM"],"Friday":["5:00 PM - 11:00 PM"],"Thursday":["5:00 PM - 10:00 PM"]},"timezone":"US/Central"},{"apiKey":"ee3f841c5988f406f15b4f2e73e761808630f7b007c59914","deliveryMin":10.00,"logoUrl":"https://eatstreet-static.s3.amazonaws.com/assets/images/restaurant_logos/natys-fast-food-39343_1482362754478.png","name":"Naty's Fast Food","streetAddress":"1616 Beld St.","city":"Madison","state":"WI","zip":"53715","foodTypes":["Mexican"],"phone":"(608) 709-6745","latitude":43.049562,"longitude":-89.392943,"minFreeDelivery":0.00,"taxRate":0.0550,"acceptsCash":true,"acceptsCard":true,"offersPickup":true,"offersDelivery":false,"isTestRestaurant":false,"minWaitTime":45,"maxWaitTime":60,"open":false,"url":"https://eatstreet.com/madison-wi/restaurants/natys-fast-food-madison","hours":{"Monday":["11:00 AM - 8:30 PM"],"Saturday":["11:00 AM - 8:30 PM"],"Wednesday":["11:00 AM - 8:30 PM"],"Tuesday":["11:00 AM - 8:30 PM"],"Friday":["11:00 AM - 8:30 PM"],"Thursday":["11:00 AM - 8:30 PM"]},"timezone":"US/Central"},{"apiKey":"ee3f841c5988f406f15b4f2e73e76180f3124150cff29cdc","deliveryMin":10.00,"deliveryPrice":3.00,"logoUrl":"https://eatstreet-static.s3.amazonaws.com/assets/images/restaurant_logos/nitty-gritty-38455_1477935659507.png","name":"Nitty Gritty","streetAddress":"223 N Frances St.","city":"Madison","state":"WI","zip":"53703","foodTypes":["Burgers","Sandwiches","Bars","American (Traditional)"],"phone":"(608) 251-2521","latitude":43.071811,"longitude":-89.395521,"minFreeDelivery":0.00,"taxRate":0.0550,"acceptsCash":false,"acceptsCard":true,"offersPickup":true,"offersDelivery":true,"isTestRestaurant":false,"minWaitTime":25,"maxWaitTime":50,"open":false,"url":"https://eatstreet.com/madison-wi/restaurants/nitty-gritty","hours":{"Monday":["11:00 AM - 9:45 PM"],"Saturday":["11:00 AM - 9:45 PM"],"Sunday":["11:00 AM - 9:45 PM"],"Wednesday":["11:00 AM - 9:45 PM"],"Tuesday":["11:00 AM - 9:45 PM"],"Friday":["11:00 AM - 9:45 PM"],"Thursday":["11:00 AM - 9:45 PM"]},"timezone":"US/Central"},{"apiKey":"ee3f841c5988f406144247b91fbcb2f318da79abf33f5edf","deliveryMin":15.00,"deliveryPrice":6.48,"logoUrl":"https://eatstreet-static.s3.amazonaws.com/assets/images/restaurant_logos/noodles-and-company-22719_1439218049811.png","name":"Noodles & Company","streetAddress":"232 State St","city":"Madison","state":"WI","zip":"53703","foodTypes":["American","Italian","Mediterranean"],"phone":"(512) 222-3152","latitude":43.0749456,"longitude":-89.38957119999999,"minFreeDelivery":0.00,"taxRate":0.0550,"acceptsCash":false,"acceptsCard":true,"offersPickup":false,"offersDelivery":true,"isTestRestaurant":false,"minWaitTime":45,"maxWaitTime":60,"open":false,"url":"https://eatstreet.com/madison-wi/restaurants/noodles-and-company-state-st","hours":{"Monday":["11:00 AM - 9:00 PM"],"Saturday":["11:00 AM - 9:00 PM"],"Sunday":["11:00 AM - 9:00 PM"],"Wednesday":["11:00 AM - 9:00 PM"],"Tuesday":["11:00 AM - 9:00 PM"],"Friday":["11:00 AM - 9:00 PM"],"Thursday":["11:00 AM - 9:00 PM"]},"timezone":"US/Central"},{"apiKey":"ee3f841c5988f406f15b4f2e73e76180c8be42f758bd65a9","deliveryMin":15.00,"deliveryPrice":3.00,"logoUrl":"https://eatstreet-static.s3.amazonaws.com/assets/images/restaurant_logos/om-indian-fusion-cuisine-39368_1482432075571.png","name":"OM Indian Fusion Cuisine","streetAddress":"3579 E. Washington Ave.","city":"Madison","state":"WI","zip":"53704","foodTypes":["Indian"],"phone":"(608) 467-2110","latitude":43.115489,"longitude":-89.324962,"minFreeDelivery":0.00,"taxRate":0.0550,"acceptsCash":true,"acceptsCard":true,"offersPickup":true,"offersDelivery":true,"isTestRestaurant":false,"minWaitTime":60,"maxWaitTime":75,"open":false,"url":"https://eatstreet.com/madison-wi/restaurants/om-indian-fusion-cuisine","hours":{"Monday":["5:00 PM - 9:45 PM"],"Saturday":["5:00 PM - 9:45 PM"],"Sunday":["5:00 PM - 8:45 PM"],"Wednesday":["5:00 PM - 9:45 PM"],"Tuesday":["5:00 PM - 9:45 PM"],"Friday":["5:00 PM - 9:45 PM"],"Thursday":["5:00 PM - 9:45 PM"]},"timezone":"US/Central"},{"apiKey":"ee3f841c5988f406f15b4f2e73e76180ea1b2e03c1e75782","deliveryMin":10.00,"deliveryPrice":3.00,"logoUrl":"https://eatstreet-static.s3.amazonaws.com/assets/images/restaurant_logos/oss-madison-36310_1460058214348.png","name":"OSS Madison","streetAddress":"910 Regent Street","city":"Madison","state":"WI","zip":"53715","foodTypes":["Bar/Pub Food","Sausages","American Food","Comfort Food","American (New)","Beer Bar"],"phone":"(608) 709-1000","latitude":43.067845,"longitude":-89.401671,"minFreeDelivery":0.00,"taxRate":0.0550,"acceptsCash":false,"acceptsCard":true,"offersPickup":true,"offersDelivery":true,"isTestRestaurant":false,"minWaitTime":20,"maxWaitTime":45,"open":false,"url":"https://eatstreet.com/madison-wi/restaurants/oss-madison-madison","hours":{"Saturday":["11:00 AM - 10:00 PM"],"Sunday":["11:00 AM - 8:45 PM"],"Wednesday":["11:00 AM - 8:45 PM"],"Tuesday":["11:00 AM - 8:45 PM"],"Friday":["11:00 AM - 10:00 PM"],"Thursday":["11:00 AM - 8:45 PM"]},"timezone":"US/Central"},{"apiKey":"ee3f841c5988f406884225aec137a02ac5c9b09688853cc4","deliveryMin":10.00,"deliveryPrice":2.00,"logoUrl":"https://eatstreet-static.s3.amazonaws.com/assets/images/restaurant_logos/orient-house-chinese-restaurant-144_1414085422692.png","name":"Orient House Chinese Restaurant","streetAddress":"626 S Park St","city":"Madison","state":"WI","zip":"53715","foodTypes":["Chinese Food","Vegetarian","Asian Food","Chicken","Soup"],"phone":"(608) 260-0098","latitude":43.060363,"longitude":-89.401188,"minFreeDelivery":-1.0000,"taxRate":0.0550,"acceptsCash":true,"acceptsCard":true,"offersPickup":true,"offersDelivery":true,"isTestRestaurant":false,"minWaitTime":45,"maxWaitTime":60,"open":false,"url":"https://eatstreet.com/madison-wi/restaurants/orient-house","hours":{"Monday":["10:30 AM - 9:45 PM"],"Saturday":["9:30 AM - 9:45 PM"],"Sunday":["9:30 AM - 9:45 PM"],"Wednesday":["10:30 AM - 9:45 PM"],"Friday":["10:30 AM - 9:45 PM"],"Thursday":["10:30 AM - 9:45 PM"]},"timezone":"US/Central"},{"apiKey":"ee3f841c5988f4068bafcde0589c806d571a1150bf5a097a","deliveryMin":12.00,"deliveryPrice":1.00,"logoUrl":"https://eatstreet-static.s3.amazonaws.com/assets/images/restaurant_logos/oriental-wok-553_1413912843752.png","name":"Oriental Wok","streetAddress":"532 S Park St","city":"Madison","state":"WI","zip":"53713","foodTypes":["Seafood","Chinese Food","Vegetarian","Asian Food","Healthy Food","Chicken","Soup","Chinese"],"phone":"(608) 255-1288","latitude":43.0616455,"longitude":-89.4008915,"minFreeDelivery":-1.0000,"taxRate":0.0550,"acceptsCash":true,"acceptsCard":true,"offersPickup":true,"offersDelivery":true,"isTestRestaurant":false,"minWaitTime":45,"maxWaitTime":60,"open":true,"url":"https://eatstreet.com/madison-wi/restaurants/oriental-wok","hours":{"Monday":["11:00 AM - 12:30 AM"],"Saturday":["11:00 AM - 12:30 AM"],"Sunday":["11:00 AM - 12:30 AM"],"Wednesday":["11:00 AM - 12:30 AM"],"Tuesday":["11:00 AM - 12:30 AM"],"Friday":["11:00 AM - 12:30 AM"],"Thursday":["11:00 AM - 12:30 AM"]},"timezone":"US/Central"},{"apiKey":"ee3f841c5988f4068bafcde0589c806d2c23210f131a49e0","deliveryMin":15.00,"deliveryPrice":1.00,"logoUrl":"https://eatstreet-static.s3.amazonaws.com/assets/images/restaurant_logos/osaka-house-5186_1415115400445.png","name":"Osaka House","streetAddress":"505 State St","city":"Madison","state":"WI","zip":"53703","foodTypes":["Japanese Food","Asian Food","Sushi","Soup","Japanese"],"phone":"(608) 819-8855","latitude":43.074686,"longitude":-89.393947,"minFreeDelivery":-1.0000,"taxRate":0.0550,"acceptsCash":false,"acceptsCard":true,"offersPickup":true,"offersDelivery":true,"isTestRestaurant":false,"minWaitTime":25,"maxWaitTime":40,"open":false,"url":"https://eatstreet.com/madison-wi/restaurants/osaka-house-madison","hours":{"Monday":["11:30 AM - 9:30 PM"],"Saturday":["11:30 AM - 9:30 PM"],"Sunday":["11:30 AM - 9:30 PM"],"Wednesday":["11:30 AM - 9:30 PM"],"Tuesday":["11:30 AM - 9:30 PM"],"Friday":["11:30 AM - 9:30 PM"],"Thursday":["11:30 AM - 9:30 PM"]},"timezone":"US/Central"},{"apiKey":"ee3f841c5988f406884225aec137a02a566e764d68be0188","deliveryMin":15.00,"deliveryPrice":6.48,"logoUrl":"https://eatstreet-static.s3.amazonaws.com/assets/images/restaurant_logos/palmyra-mediterranean-grill-16394_1415047755586.png","name":"Palmyra Mediterranean Grill","streetAddress":"419 State St","city":"Madison","state":"WI","zip":"53703","foodTypes":["Mediterranean Food","Mediterranean"],"phone":"(512) 222-3152","latitude":43.0748104,"longitude":-89.3925279,"minFreeDelivery":0.00,"taxRate":0.0550,"acceptsCash":false,"acceptsCard":true,"offersPickup":false,"offersDelivery":true,"isTestRestaurant":false,"minWaitTime":45,"maxWaitTime":60,"open":false,"url":"https://eatstreet.com/madison-wi/restaurants/palmyra-mediterranean-grill","hours":{},"timezone":"US/Central"},{"apiKey":"ee3f841c5988f406da325d7782b35bdb07a8d1a98bcd76d3","deliveryMin":7.50,"deliveryPrice":2.48,"logoUrl":"https://eatstreet-static.s3.amazonaws.com/assets/images/restaurant_logos/papa-johns-pizza-downtown-751_1413913421660.png","name":"Papa John's Pizza - Downtown","streetAddress":"515 University Ave","city":"Madison","state":"WI","zip":"53703","foodTypes":["Pizza","Wings","Italian"],"phone":"(608) 257-7272","latitude":43.07282600000001,"longitude":-89.394966,"minFreeDelivery":-1.0000,"taxRate":0.0550,"acceptsCash":false,"acceptsCard":true,"offersPickup":true,"offersDelivery":true,"isTestRestaurant":false,"minWaitTime":60,"maxWaitTime":90,"open":true,"url":"https://eatstreet.com/madison-wi/restaurants/papa-johns-pizza-downtown","hours":{"Monday":["11:00 AM - 11:45 PM"],"Saturday":["11:00 AM - 12:45 AM"],"Sunday":["11:00 AM - 10:45 PM"],"Wednesday":["11:00 AM - 11:45 PM"],"Tuesday":["11:00 AM - 11:45 PM"],"Friday":["11:00 AM - 12:45 AM"],"Thursday":["11:00 AM - 11:45 PM"]},"timezone":"US/Central"},{"apiKey":"ee3f841c5988f4068bafcde0589c806d15ad1e2208339a26","deliveryMin":15.00,"deliveryPrice":6.48,"logoUrl":"https://eatstreet-static.s3.amazonaws.com/assets/images/restaurant_logos/parkway-family-restaurant-5122_1415048107445.png","name":"Parkway Family Restaurant","streetAddress":"1221 Ann St","city":"Madison","state":"WI","zip":"53713","foodTypes":["Breakfast","American Food","American (New)","Breakfast & Brunch"],"phone":"(512) 222-3152","latitude":43.0359511,"longitude":-89.4051052,"minFreeDelivery":0.00,"taxRate":0.0550,"acceptsCash":false,"acceptsCard":true,"offersPickup":false,"offersDelivery":true,"isTestRestaurant":false,"minWaitTime":45,"maxWaitTime":60,"open":false,"url":"https://eatstreet.com/madison-wi/restaurants/parkway-family-restaurant","hours":{"Monday":["11:00 AM - 9:00 PM"],"Saturday":["11:00 AM - 9:00 PM"],"Sunday":["11:00 AM - 9:00 PM"],"Wednesday":["11:00 AM - 9:00 PM"],"Tuesday":["11:00 AM - 9:00 PM"],"Friday":["11:00 AM - 9:00 PM"],"Thursday":["11:00 AM - 9:00 PM"]},"timezone":"US/Central"},{"apiKey":"ee3f841c5988f406459c89af9c680205b3e98e3699ec2e73","deliveryMin":12.00,"deliveryPrice":3.00,"logoUrl":"https://eatstreet-static.s3.amazonaws.com/assets/images/restaurant_logos/parthenon-gyros-restaurant-40027_1487110320513.png","name":"Parthenon Gyros Restaurant","streetAddress":"316 State St","city":"Madison","state":"WI","zip":"53703","foodTypes":["Greek","Gyros"],"phone":"(608) 251-6311","latitude":43.075065,"longitude":-89.390675,"minFreeDelivery":0.00,"taxRate":0.0550,"acceptsCash":true,"acceptsCard":true,"offersPickup":true,"offersDelivery":true,"isTestRestaurant":false,"minWaitTime":45,"maxWaitTime":60,"open":false,"url":"https://eatstreet.com/madison-wi/restaurants/parthenon-gyros","hours":{"Monday":["11:00 AM - 10:00 PM"],"Saturday":["11:00 AM - 10:00 PM"],"Sunday":["11:00 AM - 10:00 PM"],"Wednesday":["11:00 AM - 10:00 PM"],"Tuesday":["11:00 AM - 10:00 PM"],"Friday":["11:00 AM - 10:00 PM"],"Thursday":["11:00 AM - 10:00 PM"]},"timezone":"US/Central"},{"apiKey":"ee3f841c5988f406da325d7782b35bdb5cd82e21c08548f2","deliveryMin":15.00,"deliveryPrice":6.48,"logoUrl":"https://eatstreet-static.s3.amazonaws.com/assets/images/restaurant_logos/pauls-pelmeni-7847_1415048346434.png","name":"Paul's Pel'meni","streetAddress":"203 West Gorham Street","city":"Madison","state":"WI","zip":"53703","foodTypes":["Italian Food","Russian Food","Russian"],"phone":"(512) 222-3152","latitude":43.07511239999999,"longitude":-89.3908981,"minFreeDelivery":0.00,"taxRate":0.0550,"acceptsCash":false,"acceptsCard":true,"offersPickup":false,"offersDelivery":true,"isTestRestaurant":false,"minWaitTime":45,"maxWaitTime":60,"open":false,"url":"https://eatstreet.com/madison-wi/restaurants/pauls-pelmeni","hours":{"Monday":["11:00 AM - 8:00 PM"],"Saturday":["11:00 AM - 10:30 PM"],"Sunday":["11:00 AM - 8:00 PM"],"Wednesday":["11:00 AM - 8:00 PM"],"Tuesday":["11:00 AM - 8:00 PM"],"Friday":["11:00 AM - 10:30 PM"],"Thursday":["11:00 AM - 9:45 PM"]},"timezone":"US/Central"},{"apiKey":"ee3f841c5988f406f15b4f2e73e761803717694122a540a6","deliveryMin":10.00,"deliveryPrice":3.00,"logoUrl":"https://eatstreet-static.s3.amazonaws.com/assets/images/restaurant_logos/pauls-pelmeni-39592_1485390934458.png","name":"Paul's Pel'meni","streetAddress":"203 W Gorham St","city":"Madison","state":"WI","zip":"53703","foodTypes":["Russian","Dumplings"],"phone":"(608) 354-1713","latitude":43.0751567,"longitude":-89.391062,"minFreeDelivery":0.00,"taxRate":0.0550,"acceptsCash":true,"acceptsCard":true,"offersPickup":true,"offersDelivery":true,"isTestRestaurant":false,"minWaitTime":45,"maxWaitTime":60,"open":false,"url":"https://eatstreet.com/madison-wi/restaurants/pauls-pelmini","hours":{"Monday":["11:00 AM - 10:00 PM"],"Saturday":["11:00 AM - 10:00 PM"],"Sunday":["11:00 AM - 10:00 PM"],"Wednesday":["11:00 AM - 10:00 PM"],"Tuesday":["11:00 AM - 10:00 PM"],"Friday":["11:00 AM - 10:00 PM"],"Thursday":["11:00 AM - 10:00 PM"]},"timezone":"US/Central"},{"apiKey":"ee3f841c5988f4068bafcde0589c806d95135fbf3d901614","logoUrl":"https://eatstreet-static.s3.amazonaws.com/assets/images/restaurant_logos/peoples-bakery-5110_1415049454212.png","name":"People's Bakery","streetAddress":"2810 E Washington Ave","city":"Madison","state":"WI","zip":"53704","foodTypes":["Subs & Sandwiches","Lebanese Food","Middle Eastern Food","Mediterranean Food","Healthy Food","Bakery","Greek Food"],"phone":"(608) 245-0404","latitude":43.1029366,"longitude":-89.345775,"minFreeDelivery":-1.0000,"taxRate":0.0550,"acceptsCash":true,"acceptsCard":true,"offersPickup":true,"offersDelivery":false,"isTestRestaurant":false,"minWaitTime":45,"maxWaitTime":60,"open":false,"url":"https://eatstreet.com/madison-wi/restaurants/peoples-bakery-madison","hours":{"Monday":["6:00 AM - 7:00 PM"],"Saturday":["6:00 AM - 7:00 PM"],"Sunday":["6:00 AM - 6:00 PM"],"Wednesday":["6:00 AM - 7:00 PM"],"Tuesday":["6:00 AM - 7:00 PM"],"Friday":["6:00 AM - 7:00 PM"],"Thursday":["6:00 AM - 7:00 PM"]},"timezone":"US/Central"},{"apiKey":"ee3f841c5988f406da325d7782b35bdbd5f6e37b3af826bd","deliveryMin":15.00,"deliveryPrice":6.48,"logoUrl":"https://eatstreet-static.s3.amazonaws.com/assets/images/restaurant_logos/peoples-bakery-7544_1415114359853.png","name":"People's Bakery","streetAddress":"2810 E Washington Ave","city":"Madison","state":"WI","zip":"53704","foodTypes":["Lebanese Food","Mediterranean Food","Bakery","Bakeries","Mediterranean","Lebanese"],"phone":"(512) 222-3152","latitude":43.1029802,"longitude":-89.3456932,"minFreeDelivery":0.00,"taxRate":0.0550,"acceptsCash":false,"acceptsCard":true,"offersPickup":false,"offersDelivery":true,"isTestRestaurant":false,"minWaitTime":45,"maxWaitTime":60,"open":false,"url":"https://eatstreet.com/madison-wi/restaurants/peoples-bakery","hours":{"Monday":["11:00 AM - 5:00 PM"],"Saturday":["11:00 AM - 8:00 PM"],"Sunday":["11:00 AM - 6:00 PM"],"Wednesday":["11:00 AM - 7:00 PM"],"Tuesday":["11:00 AM - 7:00 PM"],"Friday":["11:00 AM - 8:00 PM"],"Thursday":["11:00 AM - 7:00 PM"]},"timezone":"US/Central"},{"apiKey":"ee3f841c5988f406f15b4f2e73e76180ac6a264e5ea8f26c","deliveryMin":0.00,"deliveryPrice":2.00,"logoUrl":"https://eatstreet-static.s3.amazonaws.com/assets/images/restaurant_logos/pita-pit-360_1414083867824.png","name":"Pita Pit","streetAddress":"449 State St","city":"Madison","state":"WI","zip":"53703","foodTypes":["Pitas","Breakfast","Vegetarian","Sandwiches"],"phone":"(608) 819-6722","latitude":43.074792,"longitude":-89.393135,"minFreeDelivery":-1.0000,"taxRate":0.0550,"acceptsCash":false,"acceptsCard":true,"offersPickup":true,"offersDelivery":true,"isTestRestaurant":false,"minWaitTime":20,"maxWaitTime":40,"open":false,"url":"https://eatstreet.com/madison-wi/restaurants/pita-pit-madison","hours":{"Monday":["11:00 AM - 9:45 PM"],"Saturday":["11:00 AM - 9:45 PM"],"Sunday":["11:00 AM - 9:45 PM"],"Wednesday":["11:00 AM - 9:45 PM"],"Tuesday":["11:00 AM - 9:45 PM"],"Friday":["11:00 AM - 9:45 PM"],"Thursday":["11:00 AM - 9:45 PM"]},"timezone":"US/Central"},{"apiKey":"ee3f841c5988f406144247b91fbcb2f38088fa2aa67169b7","deliveryMin":10.00,"deliveryPrice":2.99,"logoUrl":"https://eatstreet-static.s3.amazonaws.com/assets/images/restaurant_logos/pizza-bella-28_1358445650451.png","name":"Pizza Bella","streetAddress":"1437 Regent St","city":"Madison","state":"WI","zip":"53711","foodTypes":["Greek Food","Wings","Pasta","Pizza","Italian Food","Healthy Food","Subs & Sandwiches"],"phone":"(608) 259-0786","latitude":43.0676740468549,"longitude":-89.4099413191554,"minFreeDelivery":-1.0000,"taxRate":0.0550,"acceptsCash":true,"acceptsCard":true,"offersPickup":true,"offersDelivery":true,"isTestRestaurant":false,"minWaitTime":30,"maxWaitTime":45,"open":true,"url":"https://eatstreet.com/madison-wi/restaurants/pizza-bella","hours":{"Monday":["11:00 AM - 10:15 PM"],"Saturday":["11:30 AM - 3:30 AM"],"Sunday":["11:30 AM - 10:00 PM"],"Wednesday":["11:00 AM - 10:15 PM"],"Tuesday":["11:00 AM - 10:15 PM"],"Friday":["11:00 AM - 3:30 AM"],"Thursday":["11:00 AM - 10:15 PM"]},"timezone":"US/Central"},{"apiKey":"ee3f841c5988f406f15b4f2e73e761805f008013f15bbb82","deliveryMin":10.00,"deliveryPrice":3.00,"logoUrl":"https://eatstreet-static.s3.amazonaws.com/assets/images/restaurant_logos/pizza-brutta-38640_1478109829364.png","name":"Pizza Brutta - Madison","streetAddress":"1805 Monroe St","city":"Madison","state":"WI","zip":"53711","foodTypes":["Pizza"],"phone":"(608) 257-2120","latitude":43.065157,"longitude":-89.416402,"minFreeDelivery":0.00,"taxRate":0.0550,"acceptsCash":false,"acceptsCard":true,"offersPickup":true,"offersDelivery":true,"isTestRestaurant":false,"minWaitTime":25,"maxWaitTime":40,"open":false,"url":"https://eatstreet.com/madison-wi/restaurants/pizza-brutta-madison-madison","hours":{"Monday":["11:00 AM - 8:45 PM"],"Saturday":["11:00 AM - 8:45 PM"],"Sunday":["11:00 AM - 8:45 PM"],"Wednesday":["11:00 AM - 8:45 PM"],"Tuesday":["11:00 AM - 8:45 PM"],"Friday":["11:00 AM - 8:45 PM"],"Thursday":["11:00 AM - 8:45 PM"]},"timezone":"US/Central"},{"apiKey":"ee3f841c5988f406884225aec137a02a5810602115f65fb2","deliveryMin":8.00,"deliveryPrice":2.50,"logoUrl":"https://eatstreet-static.s3.amazonaws.com/assets/images/restaurant_logos/pizza-di-roma-10_1413913801203.png","name":"Pizza Di Roma","streetAddress":"313 State St","city":"Madison","state":"WI","zip":"53703","foodTypes":["Pizza","Italian","Seafood","Soup"],"phone":"(608) 268-0900","latitude":43.0746718855117,"longitude":-89.3901565481703,"minFreeDelivery":-1.0000,"taxRate":0.0550,"acceptsCash":true,"acceptsCard":true,"offersPickup":true,"offersDelivery":true,"isTestRestaurant":false,"minWaitTime":25,"maxWaitTime":45,"open":true,"url":"https://eatstreet.com/madison-wi/restaurants/pizza-di-roma-madison","hours":{"Monday":["11:30 AM - 2:45 AM"],"Saturday":["11:30 AM - 2:45 AM"],"Sunday":["11:30 AM - 2:45 AM"],"Wednesday":["11:30 AM - 2:45 AM"],"Tuesday":["11:30 AM - 2:45 AM"],"Friday":["11:30 AM - 2:45 AM"],"Thursday":["11:30 AM - 2:45 AM"]},"timezone":"US/Central"},{"apiKey":"ee3f841c5988f406144247b91fbcb2f368581c5b05756d42","deliveryMin":9.50,"deliveryPrice":1.50,"logoUrl":"https://eatstreet-static.s3.amazonaws.com/assets/images/restaurant_logos/pizza-extreme-27_1413913392962.png","name":"Pizza Extreme","streetAddress":"1614 Monroe St","city":"Madison","state":"WI","zip":"53711","foodTypes":["Greek Food","Pizza","Wings","Subs & Sandwiches","Pizza","Healthy Food","Sandwiches","Catering","Chicken Wings"],"phone":"(608) 259-1500","latitude":43.0671047245685,"longitude":-89.4139791466502,"minFreeDelivery":-1.0000,"taxRate":0.0550,"acceptsCash":false,"acceptsCard":true,"offersPickup":true,"offersDelivery":true,"isTestRestaurant":false,"minWaitTime":45,"maxWaitTime":60,"open":false,"url":"https://eatstreet.com/madison-wi/restaurants/pizza-extreme","hours":{"Monday":["11:00 AM - 10:45 PM"],"Saturday":["11:00 AM - 10:45 PM"],"Sunday":["12:00 PM - 10:15 PM"],"Wednesday":["11:00 AM - 10:45 PM"],"Tuesday":["11:00 AM - 10:45 PM"],"Friday":["11:00 AM - 10:45 PM"],"Thursday":["11:00 AM - 10:45 PM"]},"timezone":"US/Central"},{"apiKey":"ee3f841c5988f406ab9b56a2a4d9fc14d47443b7dfec8a2a","deliveryMin":10.00,"deliveryPrice":3.00,"logoUrl":"https://eatstreet-static.s3.amazonaws.com/assets/images/restaurant_logos/pizza-hut-park-st-6770_1472737854715.png","name":"Pizza Hut - Park St.","streetAddress":"520 S Park St","city":"Madison","state":"WI","zip":"53715","foodTypes":["Wings","Pasta","Pizza","Italian Food","Italian","Chicken Wings"],"phone":"(608) 442-4242","latitude":43.0618317770266,"longitude":-89.400843193229,"minFreeDelivery":-1.0000,"taxRate":0.0550,"acceptsCash":true,"acceptsCard":true,"offersPickup":true,"offersDelivery":true,"isTestRestaurant":false,"minWaitTime":30,"maxWaitTime":45,"open":false,"url":"https://eatstreet.com/madison-wi/restaurants/pizza-hut-madison","hours":{"Monday":["10:30 AM - 11:30 PM"],"Saturday":["10:30 AM - 11:30 PM"],"Sunday":["10:30 AM - 4:00 AM"],"Wednesday":["10:30 AM - 11:30 PM"],"Tuesday":["10:30 AM - 11:30 PM"],"Friday":["10:30 AM - 11:30 PM"],"Thursday":["10:30 AM - 11:30 PM"]},"timezone":"US/Central"},{"apiKey":"ee3f841c5988f4068bafcde0589c806da8383a7b47fe4dc4","deliveryMin":11.00,"logoUrl":"https://eatstreet-static.s3.amazonaws.com/assets/images/restaurant_logos/pizza-pit-e-washington-ave-5468_1364946750107.png","name":"Pizza Pit - E. Washington Ave","streetAddress":"1860 E Washington Ave","city":"Madison","state":"WI","zip":"53704","foodTypes":["Greek Food","Seafood","Pizza","Catering","Caterers"],"phone":"(608) 246-7733","latitude":43.092236,"longitude":-89.360787,"minFreeDelivery":-1.0000,"taxRate":0.0550,"acceptsCash":false,"acceptsCard":true,"offersPickup":true,"offersDelivery":true,"isTestRestaurant":false,"minWaitTime":45,"maxWaitTime":60,"open":true,"url":"https://eatstreet.com/madison-wi/restaurants/pizza-pit-e-washington","hours":{"Monday":["11:00 AM - 11:30 PM"],"Saturday":["4:00 PM - 1:00 AM"],"Sunday":["4:00 PM - 11:00 PM"],"Wednesday":["11:00 AM - 11:30 PM"],"Tuesday":["11:00 AM - 11:30 PM"],"Friday":["11:00 AM - 1:00 AM"],"Thursday":["11:00 AM - 12:00 AM"]},"timezone":"US/Central"},{"apiKey":"ee3f841c5988f406884225aec137a02a8088fa2aa67169b7","deliveryMin":9.00,"deliveryPrice":1.50,"logoUrl":"https://eatstreet-static.s3.amazonaws.com/assets/images/restaurant_logos/pizza-pit-monroe-st-18_1364945804508.png","name":"Pizza Pit - Monroe St.","streetAddress":"1614 Monroe St","city":"Madison","state":"WI","zip":"53711","foodTypes":["Greek Food","Seafood","Wings","Pizza","Subs & Sandwiches","Catering","Chicken Wings","Sandwiches"],"phone":"(608) 259-1500","latitude":43.0671047245685,"longitude":-89.4139791466502,"minFreeDelivery":-1.0000,"taxRate":0.0550,"acceptsCash":true,"acceptsCard":true,"offersPickup":true,"offersDelivery":true,"isTestRestaurant":false,"minWaitTime":60,"maxWaitTime":90,"open":false,"url":"https://eatstreet.com/madison-wi/restaurants/pizza-pit","hours":{"Monday":["11:00 AM - 10:45 PM"],"Saturday":["11:00 AM - 10:45 PM"],"Sunday":["11:00 AM - 10:15 PM"],"Wednesday":["11:00 AM - 10:45 PM"],"Tuesday":["11:00 AM - 10:45 PM"],"Friday":["11:00 AM - 10:45 PM"],"Thursday":["11:00 AM - 10:45 PM"]},"timezone":"US/Central"},{"apiKey":"ee3f841c5988f406144247b91fbcb2f3989f349d4f331ca9","deliveryMin":10.00,"deliveryPrice":2.50,"logoUrl":"https://eatstreet-static.s3.amazonaws.com/assets/images/restaurant_logos/quiznos-park-st-24507_1412955964753.png","name":"Quizno's - Park St.","streetAddress":"318 S. Park St.","city":"Madison","state":"WI","zip":"53715","foodTypes":["Sandwiches","Subs"],"phone":"(608) 268-1010","latitude":43.063559,"longitude":-89.401301,"minFreeDelivery":0.00,"taxRate":0.0550,"acceptsCash":false,"acceptsCard":true,"offersPickup":true,"offersDelivery":true,"isTestRestaurant":false,"minWaitTime":20,"maxWaitTime":40,"open":false,"url":"https://eatstreet.com/madison-wi/restaurants/quiznos-park-st","hours":{"Monday":["10:00 AM - 9:00 PM"],"Saturday":["11:00 AM - 9:00 PM"],"Sunday":["11:00 AM - 9:00 PM"],"Wednesday":["10:00 AM - 9:00 PM"],"Tuesday":["10:00 AM - 9:00 PM"],"Friday":["10:00 AM - 9:00 PM"],"Thursday":["10:00 AM - 9:00 PM"]},"timezone":"US/Central"},{"apiKey":"ee3f841c5988f406144247b91fbcb2f37023d50a794a41d1","logoUrl":"https://eatstreet-static.s3.amazonaws.com/assets/images/restaurant_logos/quiznos-pinckney-st-24392_1412956019849.png","name":"Quizno's - Pinckney St.","streetAddress":"5 N. Pinckney St.","city":"Madison","state":"WI","zip":"53703","foodTypes":[],"phone":"(608) 255-1410","latitude":43.075927,"longitude":-89.383095,"minFreeDelivery":0.00,"taxRate":0.0550,"acceptsCash":true,"acceptsCard":true,"offersPickup":true,"offersDelivery":false,"isTestRestaurant":false,"minWaitTime":45,"maxWaitTime":60,"open":false,"url":"https://eatstreet.com/madison-wi/restaurants/quiznos-pinckney","hours":{"Monday":["9:00 AM - 6:00 PM"],"Wednesday":["9:00 AM - 6:00 PM"],"Tuesday":["9:00 AM - 6:00 PM"],"Friday":["9:00 AM - 6:00 PM"],"Thursday":["9:00 AM - 6:00 PM"]},"timezone":"US/Central"},{"apiKey":"ee3f841c5988f406f15b4f2e73e76180ae2d9f3503a80fb6","deliveryMin":18.00,"deliveryPrice":3.00,"logoUrl":"https://eatstreet-static.s3.amazonaws.com/assets/images/restaurant_logos/ramen-station-36778_1462828869293.png","name":"Ramen Station","streetAddress":"1124 Park St.","city":"Madison","state":"WI","zip":"53715","foodTypes":["Chinese Food","Pasta","Asian Food","Ramen"],"phone":"(608) 819-8918","latitude":43.054004,"longitude":-89.396807,"minFreeDelivery":0.00,"taxRate":0.0550,"acceptsCash":true,"acceptsCard":true,"offersPickup":true,"offersDelivery":true,"isTestRestaurant":false,"minWaitTime":25,"maxWaitTime":35,"open":false,"url":"https://eatstreet.com/madison-wi/restaurants/ramen-station-madison","hours":{"Monday":["11:00 AM - 2:10 PM","4:30 PM - 9:30 PM"],"Saturday":["11:00 AM - 2:10 PM","4:30 PM - 9:30 PM"],"Sunday":["12:00 PM - 9:00 PM"],"Wednesday":["11:00 AM - 2:10 PM","4:30 PM - 9:30 PM"],"Tuesday":["11:00 AM - 2:10 PM","4:30 PM - 9:30 PM"],"Friday":["11:00 AM - 2:10 PM","4:30 PM - 9:30 PM"],"Thursday":["11:00 AM - 2:10 PM","4:30 PM - 9:30 PM"]},"timezone":"US/Central"},{"apiKey":"ee3f841c5988f406f15b4f2e73e7618056a9d4e2ffd3c4e5","logoUrl":"https://eatstreet-static.s3.amazonaws.com/assets/images/restaurant_logos/rising-sons-36601_1461179969890.png","name":"Rising Sons","streetAddress":"617 State St","city":"Madison","state":"WI","zip":"53703","foodTypes":["Thai Food","Thai"],"phone":"(608) 661-4334","latitude":43.074795,"longitude":-89.396264,"minFreeDelivery":0.00,"taxRate":0.0550,"acceptsCash":true,"acceptsCard":true,"offersPickup":true,"offersDelivery":false,"isTestRestaurant":false,"minWaitTime":45,"maxWaitTime":60,"open":false,"url":"https://eatstreet.com/madison-wi/restaurants/rising-sons","hours":{"Monday":["11:30 AM - 8:00 PM"],"Saturday":["11:30 AM - 8:00 PM"],"Sunday":["11:30 AM - 8:00 PM"],"Wednesday":["11:30 AM - 8:00 PM"],"Tuesday":["11:30 AM - 8:00 PM"],"Friday":["11:30 AM - 8:00 PM"],"Thursday":["11:30 AM - 8:00 PM"]},"timezone":"US/Central"},{"apiKey":"ee3f841c5988f406884225aec137a02a18b8ccc4dfb8aad3","deliveryMin":10.00,"deliveryPrice":2.50,"logoUrl":"https://eatstreet-static.s3.amazonaws.com/assets/images/restaurant_logos/rocky-rococos-142_1358446074396.png","name":"Rocky Rococo - Regent St.","streetAddress":"1301 Regent St.","city":"Madison","state":"WI","zip":"53711","foodTypes":["Pasta","Pizza","Italian Food","Healthy Food","Italian"],"phone":"(608) 256-0600","latitude":43.0676485822175,"longitude":-89.407335138541,"minFreeDelivery":-1.0000,"taxRate":0.0550,"acceptsCash":true,"acceptsCard":true,"offersPickup":true,"offersDelivery":true,"isTestRestaurant":false,"minWaitTime":75,"maxWaitTime":90,"open":false,"url":"https://eatstreet.com/madison-wi/restaurants/rocky-rococos","hours":{"Monday":["10:30 AM - 8:30 PM"],"Saturday":["10:30 AM - 10:30 PM"],"Sunday":["11:00 AM - 8:30 PM"],"Wednesday":["10:30 AM - 8:30 PM"],"Tuesday":["10:30 AM - 8:30 PM"],"Friday":["10:30 AM - 10:30 PM"],"Thursday":["10:30 AM - 8:30 PM"]},"timezone":"US/Central"},{"apiKey":"ee3f841c5988f406f15b4f2e73e761800f9101329f0f24d6","deliveryMin":10.00,"deliveryPrice":1.00,"logoUrl":"https://eatstreet-static.s3.amazonaws.com/assets/images/restaurant_logos/soga-chinese-food-35632_1455824672862.png","name":"SOGA Chinese Food","streetAddress":"508 State St","city":"Madison","state":"WI","zip":"53703","foodTypes":["Chinese Food","Fusion","Asian Fusion"],"phone":"(608) 819-6784","latitude":43.075183,"longitude":-89.393635,"minFreeDelivery":0.00,"taxRate":0.0550,"acceptsCash":true,"acceptsCard":true,"offersPickup":true,"offersDelivery":true,"isTestRestaurant":false,"minWaitTime":45,"maxWaitTime":60,"open":false,"url":"https://eatstreet.com/madison-wi/restaurants/soga-chinese-food","hours":{"Monday":["11:00 AM - 10:00 PM"],"Saturday":["11:00 AM - 10:00 PM"],"Sunday":["11:00 AM - 10:00 PM"],"Wednesday":["11:00 AM - 10:00 PM"],"Tuesday":["11:00 AM - 10:00 PM"],"Friday":["11:00 AM - 10:00 PM"],"Thursday":["11:00 AM - 10:00 PM"]},"timezone":"US/Central"},{"apiKey":"ee3f841c5988f406f15b4f2e73e76180f154f8e55c2e4928","deliveryMin":12.00,"deliveryPrice":3.00,"logoUrl":"https://eatstreet-static.s3.amazonaws.com/assets/images/restaurant_logos/salads-up-32900_1442507807420.png","name":"Salads UP - Madison","streetAddress":"439 N Frances St.","city":"Madison","state":"WI","zip":"53703","foodTypes":["Salad","Juice Bars & Smoothies","Soup"],"phone":"(608) 819-8883","latitude":43.07417,"longitude":-89.395779,"minFreeDelivery":0.00,"taxRate":0.0550,"acceptsCash":false,"acceptsCard":true,"offersPickup":true,"offersDelivery":true,"isTestRestaurant":false,"minWaitTime":25,"maxWaitTime":45,"open":false,"url":"https://eatstreet.com/madison-wi/restaurants/salads-up-madison-madison","hours":{"Monday":["11:00 AM - 8:30 PM"],"Saturday":["11:00 AM - 8:30 PM"],"Sunday":["11:00 AM - 8:30 PM"],"Wednesday":["11:00 AM - 8:30 PM"],"Tuesday":["11:00 AM - 8:30 PM"],"Friday":["11:00 AM - 8:30 PM"],"Thursday":["11:00 AM - 8:30 PM"]},"timezone":"US/Central"},{"apiKey":"ee3f841c5988f406f15b4f2e73e76180dadb84d6bad4ca1d","deliveryMin":10.00,"deliveryPrice":3.00,"logoUrl":"https://eatstreet-static.s3.amazonaws.com/assets/images/restaurant_logos/salvatores-tomato-pies-39502_1484276047773.png","name":"Salvatore's Tomato Pies","streetAddress":"912 E. Johnson St.","city":"Madison","state":"WI","zip":"53703","foodTypes":["Pizza"],"phone":"(608) 238-6040","latitude":43.0848,"longitude":-89.376053,"minFreeDelivery":0.00,"taxRate":0.0550,"acceptsCash":true,"acceptsCard":true,"offersPickup":true,"offersDelivery":true,"isTestRestaurant":false,"minWaitTime":45,"maxWaitTime":60,"open":false,"url":"https://eatstreet.com/madison-wi/restaurants/salvatores-tomato-pies-e-johnson","hours":{"Saturday":["4:00 PM - 9:30 PM"],"Sunday":["4:00 PM - 8:30 PM"],"Wednesday":["4:00 PM - 9:30 PM"],"Tuesday":["4:00 PM - 9:30 PM"],"Friday":["4:00 PM - 9:30 PM"],"Thursday":["4:00 PM - 9:30 PM"]},"timezone":"US/Central"},{"apiKey":"ee3f841c5988f406884225aec137a02af8befd275795a0c7","deliveryMin":10.00,"deliveryPrice":3.00,"logoUrl":"https://eatstreet-static.s3.amazonaws.com/assets/images/restaurant_logos/silver-mine-subs-11_1413916151889.png","name":"Silver Mine Subs","streetAddress":"311 N Frances St","city":"Madison","state":"WI","zip":"53713","foodTypes":["Subs & Sandwiches","Deli","Healthy Food","American Food","Soup","American (New)","Delis","Sandwiches"],"phone":"(608) 286-1000","latitude":43.072581,"longitude":-89.39583139203117,"minFreeDelivery":-1.0000,"taxRate":0.0550,"acceptsCash":true,"acceptsCard":true,"offersPickup":true,"offersDelivery":true,"isTestRestaurant":false,"minWaitTime":20,"maxWaitTime":45,"open":true,"url":"https://eatstreet.com/madison-wi/restaurants/silver-mine-subs","hours":{"Monday":["10:00 AM - 2:50 AM"],"Saturday":["10:00 AM - 2:50 AM"],"Sunday":["10:00 AM - 2:50 AM"],"Wednesday":["10:00 AM - 2:50 AM"],"Tuesday":["10:00 AM - 2:50 AM"],"Friday":["10:00 AM - 2:50 AM"],"Thursday":["10:00 AM - 2:50 AM"]},"timezone":"US/Central"},{"apiKey":"ee3f841c5988f4068bafcde0589c806d0b098b0a09ca0da7","deliveryMin":15.00,"deliveryPrice":6.48,"logoUrl":"https://eatstreet-static.s3.amazonaws.com/assets/images/restaurant_logos/slide-gourmet-sliders-5216_1415051973270.png","name":"Slide - Gourmet Sliders","streetAddress":"33 East Main Street","city":"Madison","state":"WI","zip":"53703","foodTypes":["Subs & Sandwiches","Food Delivery Services"],"phone":"(512) 222-3152","latitude":43.0742493,"longitude":-89.3819979,"minFreeDelivery":0.00,"taxRate":0.0550,"acceptsCash":false,"acceptsCard":true,"offersPickup":false,"offersDelivery":true,"isTestRestaurant":false,"minWaitTime":45,"maxWaitTime":60,"open":false,"url":"https://eatstreet.com/madison-wi/restaurants/slide-gourmet-sliders","hours":{"Monday":["11:00 AM - 2:00 PM"],"Wednesday":["11:00 AM - 2:00 PM"],"Tuesday":["11:00 AM - 2:00 PM"],"Friday":["11:00 AM - 2:00 PM"],"Thursday":["11:00 AM - 2:00 PM"]},"timezone":"US/Central"},{"apiKey":"ee3f841c5988f4068bafcde0589c806d408fc7799096b6a0","deliveryMin":10.00,"deliveryPrice":1.00,"logoUrl":"https://eatstreet-static.s3.amazonaws.com/assets/images/restaurant_logos/soga-shabu-shabu-5187_1415049913079.png","name":"Soga Shabu Shabu","streetAddress":"508 State St","city":"Madison","state":"WI","zip":"53703","foodTypes":["Seafood","Chinese Food","Vegetarian","Asian Food","Fusion","Chicken","Soup","Asian Fusion"],"phone":"(608) 819-6780","latitude":43.074861,"longitude":-89.393741,"minFreeDelivery":-1.0000,"taxRate":0.0550,"acceptsCash":true,"acceptsCard":true,"offersPickup":true,"offersDelivery":true,"isTestRestaurant":false,"minWaitTime":40,"maxWaitTime":55,"open":false,"url":"https://eatstreet.com/madison-wi/restaurants/soga-shabu-shabu","hours":{"Monday":["11:00 AM - 10:00 PM"],"Saturday":["11:00 AM - 10:00 PM"],"Sunday":["11:00 AM - 10:00 PM"],"Wednesday":["11:00 AM - 10:00 PM"],"Tuesday":["11:00 AM - 10:00 PM"],"Friday":["11:00 AM - 10:00 PM"],"Thursday":["11:00 AM - 10:00 PM"]},"timezone":"US/Central"},{"apiKey":"ee3f841c5988f4068bafcde0589c806d7b8c82862d874512","deliveryMin":0.00,"deliveryPrice":1.00,"logoUrl":"https://eatstreet-static.s3.amazonaws.com/assets/images/restaurant_logos/sushi-express-5551_1415050624625.png","name":"Sushi Express","streetAddress":"610 University Ave","city":"Madison","state":"WI","zip":"53715","foodTypes":["Japanese Food","Asian Food","Sushi","Soup","Japanese","Sushi Bars"],"phone":"(608) 467-9688","latitude":43.073336,"longitude":-89.396349,"minFreeDelivery":-1.0000,"taxRate":0.0550,"acceptsCash":true,"acceptsCard":true,"offersPickup":true,"offersDelivery":true,"isTestRestaurant":false,"minWaitTime":45,"maxWaitTime":60,"open":false,"url":"https://eatstreet.com/madison-wi/restaurants/sushi-express","hours":{"Monday":["11:00 AM - 9:45 PM"],"Saturday":["11:00 AM - 10:45 PM"],"Sunday":["11:00 AM - 9:45 PM"],"Wednesday":["11:00 AM - 9:45 PM"],"Tuesday":["11:00 AM - 9:45 PM"],"Friday":["11:00 AM - 10:45 PM"],"Thursday":["11:00 AM - 9:45 PM"]},"timezone":"US/Central"},{"apiKey":"ee3f841c5988f406f15b4f2e73e761800bb6ec4149a13f3b","deliveryMin":15.00,"logoUrl":"https://eatstreet-static.s3.amazonaws.com/assets/images/restaurant_logos/taj-indian-restaurant-39314_1481740644295.png","name":"Taj Indian Restaurant","streetAddress":"1256 S Park St","city":"Madison","state":"WI","zip":"53715","foodTypes":["Indian"],"phone":"(608) 268-0772","latitude":43.053033,"longitude":-89.396389,"minFreeDelivery":0.00,"taxRate":0.0550,"acceptsCash":true,"acceptsCard":true,"offersPickup":true,"offersDelivery":false,"isTestRestaurant":false,"minWaitTime":45,"maxWaitTime":60,"open":false,"url":"https://eatstreet.com/madison-wi/restaurants/taj-indian-restaurant-madison","hours":{"Monday":["11:30 AM - 2:30 PM","5:00 PM - 9:30 PM"],"Saturday":["11:30 AM - 2:30 PM","5:00 PM - 9:30 PM"],"Sunday":["11:30 AM - 2:30 PM","5:00 PM - 9:30 PM"],"Wednesday":["11:30 AM - 2:30 PM","5:00 PM - 9:30 PM"],"Tuesday":["11:30 AM - 2:30 PM","5:00 PM - 9:30 PM"],"Friday":["11:30 AM - 2:30 PM","5:00 PM - 9:30 PM"],"Thursday":["11:30 AM - 2:30 PM","5:00 PM - 9:30 PM"]},"timezone":"US/Central"},{"apiKey":"ee3f841c5988f406144247b91fbcb2f38372634fd33d976a","deliveryMin":15.00,"deliveryPrice":6.48,"logoUrl":"https://eatstreet-static.s3.amazonaws.com/assets/images/restaurant_logos/taj-indian-restaurant-2662_1415113140882.png","name":"Taj Indian Restaurant","streetAddress":"1256 South Park Street","city":"Madison","state":"WI","zip":"53715","foodTypes":["Indian Food","Indian","Vegetarian"],"phone":"(512) 222-3152","latitude":43.0530331,"longitude":-89.3963895,"minFreeDelivery":0.00,"taxRate":0.0550,"acceptsCash":false,"acceptsCard":true,"offersPickup":false,"offersDelivery":true,"isTestRestaurant":false,"minWaitTime":45,"maxWaitTime":60,"open":false,"url":"https://eatstreet.com/madison-wi/restaurants/taj-indian-restaurant","hours":{"Monday":["11:00 AM - 3:00 PM","5:00 PM - 9:40 PM"],"Saturday":["11:00 AM - 3:00 PM","5:00 PM - 9:40 PM"],"Sunday":["11:00 AM - 3:00 PM","5:00 PM - 9:30 PM"],"Wednesday":["11:00 AM - 3:00 PM","5:00 PM - 9:40 PM"],"Tuesday":["11:00 AM - 3:00 PM","5:00 PM - 9:30 PM"],"Friday":["11:00 AM - 3:00 PM","5:00 PM - 9:45 PM"],"Thursday":["11:00 AM - 3:00 PM","5:00 PM - 9:30 PM"]},"timezone":"US/Central"},{"apiKey":"ee3f841c5988f406f15b4f2e73e761802a8b3aeeed4324ef","deliveryMin":15.00,"deliveryPrice":3.00,"logoUrl":"https://eatstreet-static.s3.amazonaws.com/assets/images/restaurant_logos/takara-japanese-restaurant-315-state-st-5337_1362968204610.png","name":"Takara Japanese Restaurant","streetAddress":"696 S Whitney Way","city":"Madison","state":"WI","zip":"53719","foodTypes":["Japanese Food","Asian Food","Sushi","Sushi Bars","Japanese"],"phone":"(608) 270-1188","latitude":43.050327,"longitude":-89.47453,"minFreeDelivery":-1.0000,"taxRate":0.0550,"acceptsCash":true,"acceptsCard":true,"offersPickup":true,"offersDelivery":true,"isTestRestaurant":false,"minWaitTime":60,"maxWaitTime":75,"open":false,"url":"https://eatstreet.com/madison-wi/restaurants/takara-whitney-way","hours":{"Monday":["4:30 PM - 9:45 PM"],"Saturday":["11:00 AM - 2:15 PM","4:30 PM - 9:45 PM"],"Sunday":["1:00 PM - 9:45 PM"],"Wednesday":["4:30 PM - 9:45 PM"],"Tuesday":["4:30 PM - 9:45 PM"],"Friday":["11:00 AM - 2:15 PM","4:30 PM - 9:45 PM"],"Thursday":["4:30 PM - 9:45 PM"]},"timezone":"US/Central"},{"apiKey":"ee3f841c5988f406ab9b56a2a4d9fc14197eb191d88a0b54","deliveryMin":30.00,"deliveryPrice":4.00,"logoUrl":"https://eatstreet-static.s3.amazonaws.com/assets/images/restaurant_logos/maharaja-restaurant-6887_1453318717023.png","name":"Tandoori House","streetAddress":"6713 Odana Rd #12","city":"Madison","zip":"53719","foodTypes":["Indian","Soup","Curry","Chicken","Seafood"],"phone":"(608) 833-1824","latitude":43.056081,"longitude":-89.497661,"minFreeDelivery":100.0000,"taxRate":0.0550,"acceptsCash":true,"acceptsCard":true,"offersPickup":true,"offersDelivery":true,"isTestRestaurant":false,"minWaitTime":45,"maxWaitTime":60,"open":false,"url":"https://eatstreet.com/madison-wi/restaurants/tandoori-house","hours":{"Monday":["11:30 AM - 10:00 PM"],"Saturday":["11:30 AM - 10:00 PM"],"Sunday":["11:30 AM - 10:00 PM"],"Wednesday":["11:30 AM - 10:00 PM"],"Tuesday":["11:30 AM - 10:00 PM"],"Friday":["11:30 AM - 10:00 PM"],"Thursday":["11:30 AM - 10:00 PM"]},"timezone":"US/Central"},{"apiKey":"ee3f841c5988f406f15b4f2e73e76180be47cdbbc9fd4172","deliveryMin":10.00,"deliveryPrice":3.00,"logoUrl":"https://eatstreet-static.s3.amazonaws.com/assets/images/restaurant_logos/taqueria-3-amigos-39506_1484764828357.png","name":"Taqueria 3 Amigos","streetAddress":"309 N. Henry Street","city":"Madison","state":"WI","zip":"53703","foodTypes":["Mexican"],"phone":"(608) 720-1040","latitude":43.075195,"longitude":-89.390171,"minFreeDelivery":0.00,"taxRate":0.0550,"acceptsCash":true,"acceptsCard":true,"offersPickup":false,"offersDelivery":true,"isTestRestaurant":false,"minWaitTime":45,"maxWaitTime":60,"open":false,"url":"https://eatstreet.com/madison-wi/restaurants/taqueria-3-amigos-madison","hours":{"Monday":["11:00 AM - 10:00 PM"],"Saturday":["11:00 AM - 10:00 PM"],"Sunday":["11:00 AM - 9:00 PM"],"Wednesday":["11:00 AM - 10:00 PM"],"Tuesday":["11:00 AM - 10:00 PM"],"Friday":["11:00 AM - 10:00 PM"],"Thursday":["11:00 AM - 10:00 PM"]},"timezone":"US/Central"},{"apiKey":"ee3f841c5988f406f15b4f2e73e761801921b791aa610c5e","deliveryMin":5.00,"deliveryPrice":5.00,"logoUrl":"https://eatstreet-static.s3.amazonaws.com/assets/images/restaurant_logos/taqueria-guadalajara-39547_1484921469888.png","name":"Taqueria Guadalajara","streetAddress":"1033 S Park St","city":"Madison","state":"WI","zip":"53715","foodTypes":["Mexican"],"phone":"(608) 250-1824","latitude":43.055569,"longitude":-89.397416,"minFreeDelivery":0.00,"taxRate":0.0550,"acceptsCash":true,"acceptsCard":true,"offersPickup":true,"offersDelivery":true,"isTestRestaurant":false,"minWaitTime":45,"maxWaitTime":60,"open":false,"url":"https://eatstreet.com/madison-wi/restaurants/taqueria-guadalajara-madison","hours":{"Saturday":["11:00 AM - 10:00 PM"],"Sunday":["11:00 AM - 9:00 PM"],"Wednesday":["11:00 AM - 9:00 PM"],"Tuesday":["11:00 AM - 9:00 PM"],"Friday":["11:00 AM - 10:00 PM"],"Thursday":["11:00 AM - 9:00 PM"]},"timezone":"US/Central"},{"apiKey":"ee3f841c5988f406144247b91fbcb2f3ef45862f32e944b4","logoUrl":"https://eatstreet-static.s3.amazonaws.com/assets/images/restaurant_logos/taste-of-india-23970_1412181687558.png","name":"Taste of India","streetAddress":"2623 Monroe St Ste 150","city":"Madison","state":"WI","zip":"53711","foodTypes":["Seafood","Vegetarian","Bread","Soup","Indian Food"],"phone":"(608) 218-9200","latitude":43.0571952,"longitude":-89.4282234,"minFreeDelivery":0.00,"taxRate":0.0550,"acceptsCash":true,"acceptsCard":true,"offersPickup":true,"offersDelivery":false,"isTestRestaurant":false,"minWaitTime":45,"maxWaitTime":60,"open":false,"url":"https://eatstreet.com/madison-wi/restaurants/taste-of-india-madison","hours":{"Saturday":["5:00 PM - 9:30 PM"],"Sunday":["5:00 PM - 9:30 PM"],"Wednesday":["5:00 PM - 9:30 PM"],"Tuesday":["5:00 PM - 9:30 PM"],"Friday":["5:00 PM - 9:30 PM"],"Thursday":["5:00 PM - 9:30 PM"]},"timezone":"US/Central"},{"apiKey":"ee3f841c5988f406f15b4f2e73e76180f04aee0bc1759378","deliveryMin":9.75,"deliveryPrice":3.00,"logoUrl":"https://eatstreet-static.s3.amazonaws.com/assets/images/restaurant_logos/teddywedgers-36775_1462828579146.png","name":"Teddywedgers","streetAddress":"101 State St","city":"Madison","state":"WI","zip":"57303","foodTypes":["Pasty","American","Breakfast","Cafes"],"phone":"(608) 230-5360","latitude":43.074655,"longitude":-89.386868,"minFreeDelivery":0.00,"taxRate":0.0550,"acceptsCash":false,"acceptsCard":true,"offersPickup":true,"offersDelivery":true,"isTestRestaurant":false,"minWaitTime":45,"maxWaitTime":60,"open":false,"url":"https://eatstreet.com/madison-wi/restaurants/teddywedgers","hours":{"Monday":["11:00 AM - 2:00 PM"],"Saturday":["11:00 AM - 8:45 PM"],"Wednesday":["11:00 AM - 8:45 PM"],"Tuesday":["11:00 AM - 2:00 PM"],"Friday":["11:00 AM - 8:45 PM"],"Thursday":["11:00 AM - 8:45 PM"]},"timezone":"US/Central"},{"apiKey":"ee3f841c5988f406f15b4f2e73e76180e3c3b5792e6132c3","deliveryMin":15.00,"deliveryPrice":6.48,"logoUrl":"https://eatstreet-static.s3.amazonaws.com/assets/images/restaurant_logos/the-brass-ring-3100_1405621698403.png","name":"The Brass Ring","streetAddress":"701 E Washington Ave","city":"Madison","state":"WI","zip":"53703","foodTypes":["Bar & Grill","Bars","American (Traditional)","Pool Halls"],"phone":"(512) 222-3152","latitude":43.0798171,"longitude":-89.37629620000001,"minFreeDelivery":0.00,"taxRate":0.0550,"acceptsCash":false,"acceptsCard":true,"offersPickup":false,"offersDelivery":true,"isTestRestaurant":false,"minWaitTime":45,"maxWaitTime":60,"open":false,"url":"https://eatstreet.com/madison-wi/restaurants/the-brass-ring","hours":{"Monday":["11:00 AM - 10:00 PM"],"Saturday":["11:00 AM - 6:00 PM"],"Sunday":["11:00 AM - 10:00 PM"],"Wednesday":["11:00 AM - 10:00 PM"],"Tuesday":["11:00 AM - 10:00 PM"],"Friday":["11:00 AM - 6:00 PM"],"Thursday":["11:00 AM - 10:00 PM"]},"timezone":"US/Central"},{"apiKey":"ee3f841c5988f4068bafcde0589c806df2ad3046ad18baa8","deliveryMin":10.00,"logoUrl":"https://eatstreet-static.s3.amazonaws.com/assets/images/restaurant_logos/the-pizza-oven-5345_1362760624229.png","name":"The Pizza Oven","streetAddress":"5511 Monona Drive","city":"Monona","state":"WI","zip":"53716","foodTypes":["Pizza","Pasta","Chicken","Calzone","Seafood","Burger"],"phone":"(608) 222-8722","latitude":43.060868,"longitude":-89.326144,"minFreeDelivery":-1.0000,"taxRate":0.0550,"acceptsCash":true,"acceptsCard":true,"offersPickup":true,"offersDelivery":true,"isTestRestaurant":false,"minWaitTime":75,"maxWaitTime":90,"open":false,"url":"https://eatstreet.com/madison-wi/restaurants/the-pizza-oven-madison","hours":{"Monday":["3:00 PM - 10:00 PM"],"Saturday":["11:00 AM - 10:00 PM"],"Sunday":["11:00 AM - 10:00 PM"],"Wednesday":["11:00 AM - 10:00 PM"],"Tuesday":["11:00 AM - 10:00 PM"],"Friday":["11:00 AM - 10:00 PM"],"Thursday":["11:00 AM - 10:00 PM"]},"timezone":"US/Central"},{"apiKey":"ee3f841c5988f406f15b4f2e73e76180738fbcecb549aa2b","deliveryMin":10.00,"deliveryPrice":3.00,"logoUrl":"https://eatstreet-static.s3.amazonaws.com/assets/images/restaurant_logos/the-side-door-grill-and-tap-39608_1485553907331.png","name":"The Side Door Grill & Tap","streetAddress":"240 W. Gilman Street","city":"Madison","state":"WI","zip":"53703","foodTypes":["Bar & Grill","American (Traditional)","Pubs","Burgers"],"phone":"(608) 310-4800","latitude":43.0754312,"longitude":-89.3953749,"minFreeDelivery":0.00,"taxRate":0.0550,"acceptsCash":true,"acceptsCard":true,"offersPickup":true,"offersDelivery":true,"isTestRestaurant":false,"minWaitTime":45,"maxWaitTime":60,"open":false,"url":"https://eatstreet.com/madison-wi/restaurants/the-side-door-grill-and-tap-madison","hours":{"Monday":["11:00 AM - 10:00 PM"],"Saturday":["11:00 AM - 10:00 PM"],"Sunday":["11:00 AM - 10:00 PM"],"Wednesday":["11:00 AM - 10:00 PM"],"Tuesday":["11:00 AM - 10:00 PM"],"Friday":["11:00 AM - 10:00 PM"],"Thursday":["11:00 AM - 10:00 PM"]},"timezone":"US/Central"},{"apiKey":"ee3f841c5988f4068bafcde0589c806d0379515d34e96801","deliveryMin":15.00,"deliveryPrice":6.48,"logoUrl":"https://eatstreet-static.s3.amazonaws.com/assets/images/restaurant_logos/tutto-pasta-state-st-5346_1405621751791.png","name":"Tutto Pasta State St.","streetAddress":"305 State St","city":"Madison","state":"WI","zip":"53703","foodTypes":["Italian"],"phone":"(512) 222-3152","latitude":43.0747654,"longitude":-89.39033239999999,"minFreeDelivery":0.00,"taxRate":0.0550,"acceptsCash":false,"acceptsCard":true,"offersPickup":false,"offersDelivery":true,"isTestRestaurant":false,"minWaitTime":45,"maxWaitTime":60,"open":false,"url":"https://eatstreet.com/madison-wi/restaurants/tutto-pasta-state-st","hours":{"Monday":["11:00 AM - 7:15 PM"],"Saturday":["11:00 AM - 8:15 PM"],"Sunday":["11:00 AM - 7:15 PM"],"Wednesday":["11:00 AM - 7:15 PM"],"Tuesday":["11:00 AM - 7:15 PM"],"Friday":["11:00 AM - 8:15 PM"],"Thursday":["11:00 AM - 7:15 PM"]},"timezone":"US/Central"},{"apiKey":"ee3f841c5988f406f15b4f2e73e761809d49d116e0cd2a68","deliveryMin":10.00,"deliveryPrice":3.99,"logoUrl":"https://eatstreet-static.s3.amazonaws.com/assets/images/restaurant_logos/tutto-pasta-state-street-39685_1487027356836.png","name":"Tutto Pasta State Street","streetAddress":"305 State St","city":"Madison","state":"WI","zip":"53703","foodTypes":["Italian","Pasta","Sandwiches"],"phone":"(608) 294-1000","latitude":43.074706,"longitude":-89.390341,"minFreeDelivery":0.00,"taxRate":0.0550,"acceptsCash":true,"acceptsCard":true,"offersPickup":true,"offersDelivery":true,"isTestRestaurant":false,"minWaitTime":45,"maxWaitTime":60,"open":false,"url":"https://eatstreet.com/madison-wi/restaurants/tutto-pasta-state-street","hours":{"Monday":["11:00 AM - 9:00 PM"],"Saturday":["11:00 AM - 10:00 PM"],"Sunday":["11:00 AM - 9:00 PM"],"Wednesday":["11:00 AM - 9:00 PM"],"Tuesday":["11:00 AM - 9:00 PM"],"Friday":["11:00 AM - 10:00 PM"],"Thursday":["11:00 AM - 9:00 PM"]},"timezone":"US/Central"},{"apiKey":"ee3f841c5988f406884225aec137a02aedc08903fb4188c1","deliveryMin":0.00,"deliveryPrice":3.00,"logoUrl":"https://eatstreet-static.s3.amazonaws.com/assets/images/restaurant_logos/wah-kee-wonton-noodle-145_1415114738120.png","name":"Wah Kee Wonton Noodle","streetAddress":"600 Williamson St","city":"Madison","state":"WI","zip":"53703","foodTypes":["Seafood","Chinese Food","Pasta","Asian Food","Rice","Chicken","Soup","Cantonese","Noodles"],"phone":"(608) 255-5580","latitude":43.076762,"longitude":-89.3740753,"minFreeDelivery":-1.0000,"taxRate":0.0550,"acceptsCash":true,"acceptsCard":true,"offersPickup":true,"offersDelivery":true,"isTestRestaurant":false,"minWaitTime":60,"maxWaitTime":75,"open":false,"url":"https://eatstreet.com/madison-wi/restaurants/wah-kee-wonton-noodle","hours":{"Monday":["11:00 AM - 2:15 PM","4:30 PM - 9:15 PM"],"Saturday":["11:00 AM - 9:15 PM"],"Sunday":["12:00 PM - 8:30 PM"],"Wednesday":["11:00 AM - 2:15 PM","4:30 PM - 9:15 PM"],"Tuesday":["11:00 AM - 2:15 PM","4:30 PM - 9:15 PM"],"Friday":["11:00 AM - 2:15 PM","4:30 PM - 9:15 PM"],"Thursday":["11:00 AM - 2:15 PM","4:30 PM - 9:15 PM"]},"timezone":"US/Central"},{"apiKey":"ee3f841c5988f406f15b4f2e73e7618093fb3a51e2c19a18","deliveryMin":10.00,"deliveryPrice":3.00,"logoUrl":"https://eatstreet-static.s3.amazonaws.com/assets/images/restaurant_logos/which-wich-state-st-39327_1482361001777.png","name":"Which Wich - State St.","streetAddress":"411 State St,","city":"Madison","state":"WI","zip":"53703","foodTypes":["Subs","Sandwiches"],"phone":"(608) 709-1094","latitude":43.074709,"longitude":-89.39233,"minFreeDelivery":0.00,"taxRate":0.0550,"acceptsCash":false,"acceptsCard":true,"offersPickup":true,"offersDelivery":true,"isTestRestaurant":false,"minWaitTime":25,"maxWaitTime":40,"open":false,"url":"https://eatstreet.com/madison-wi/restaurants/which-wich-state-st-madison","hours":{"Monday":["11:00 AM - 9:00 PM"],"Saturday":["11:00 AM - 9:00 PM"],"Sunday":["11:00 AM - 9:00 PM"],"Wednesday":["11:00 AM - 9:00 PM"],"Tuesday":["11:00 AM - 9:00 PM"],"Friday":["11:00 AM - 9:00 PM"],"Thursday":["11:00 AM - 9:00 PM"]},"timezone":"US/Central"},{"apiKey":"ee3f841c5988f406459c89af9c6802055419fc59d85d9db0","deliveryMin":5.00,"deliveryPrice":0.99,"logoUrl":"https://eatstreet-static.s3.amazonaws.com/assets/images/restaurant_logos/wings-over-madison-4399_1358446236369.png","name":"Wings Over Madison","streetAddress":"2739 University Ave","city":"Madison","state":"WI","zip":"53705","foodTypes":["Subs & Sandwiches","Wings","Healthy Food","Chicken","American Food","Chicken Wings","American (Traditional)"],"phone":"(608) 467-3300","latitude":43.073647,"longitude":-89.434627,"minFreeDelivery":-1.0000,"taxRate":0.0550,"acceptsCash":false,"acceptsCard":true,"offersPickup":true,"offersDelivery":true,"isTestRestaurant":false,"minWaitTime":35,"maxWaitTime":50,"open":true,"url":"https://eatstreet.com/madison-wi/restaurants/wings-over-madison","hours":{"Monday":["4:00 PM - 12:55 AM"],"Saturday":["11:00 AM - 2:55 AM"],"Sunday":["11:00 AM - 12:55 AM"],"Wednesday":["4:00 PM - 12:55 AM"],"Tuesday":["4:00 PM - 12:55 AM"],"Friday":["11:00 AM - 2:55 AM"],"Thursday":["4:00 PM - 12:55 AM"]},"timezone":"US/Central"},{"apiKey":"ee3f841c5988f406884225aec137a02a8bd5c5f2680773c1","deliveryMin":12.00,"deliveryPrice":3.49,"logoUrl":"https://eatstreet-static.s3.amazonaws.com/assets/images/restaurant_logos/wingstop-18680_1489097473114.png","name":"Wingstop","streetAddress":"1234 Regent St","city":"Madison","state":"WI","zip":"53715","foodTypes":["Wings","Chicken","Sandwich","Salad","American","Chicken Wings"],"phone":"(608) 258-9464","latitude":43.067871,"longitude":-89.407148,"minFreeDelivery":0.00,"taxRate":0.0550,"acceptsCash":false,"acceptsCard":true,"offersPickup":true,"offersDelivery":true,"isTestRestaurant":false,"minWaitTime":35,"maxWaitTime":55,"open":false,"url":"https://eatstreet.com/madison-wi/restaurants/wingstop-1234-regent-st","hours":{"Monday":["11:00 AM - 11:00 PM"],"Saturday":["11:00 AM - 11:00 PM"],"Sunday":["11:00 AM - 11:00 PM"],"Wednesday":["11:00 AM - 11:00 PM"],"Tuesday":["11:00 AM - 11:00 PM"],"Friday":["11:00 AM - 11:00 PM"],"Thursday":["11:00 AM - 11:00 PM"]},"timezone":"US/Central"},{"apiKey":"ee3f841c5988f406144247b91fbcb2f3d68ed0d3c734ea17","deliveryMin":15.00,"deliveryPrice":6.48,"logoUrl":"https://eatstreet-static.s3.amazonaws.com/assets/images/restaurant_logos/zuzu-cafe-2664_1415115017634.png","name":"ZuZu Cafe","streetAddress":"1336 Drake St","city":"Madison","state":"WI","zip":"53715","foodTypes":["Cafes","Deli","Breakfast","Coffee & Tea","Bakery","American Food","Ice Cream & Frozen Yogurt","Breakfast & Brunch"],"phone":"(512) 222-3152","latitude":43.0623639,"longitude":-89.4087522,"minFreeDelivery":0.00,"taxRate":0.0550,"acceptsCash":false,"acceptsCard":true,"offersPickup":false,"offersDelivery":true,"isTestRestaurant":false,"minWaitTime":45,"maxWaitTime":60,"open":false,"url":"https://eatstreet.com/madison-wi/restaurants/zuzu-cafe","hours":{"Saturday":["11:00 AM - 7:00 PM"],"Sunday":["11:00 AM - 5:00 PM"],"Wednesday":["11:00 AM - 7:00 PM"],"Tuesday":["11:00 AM - 7:00 PM"],"Friday":["11:00 AM - 7:00 PM"],"Thursday":["11:00 AM - 7:00 PM"]},"timezone":"US/Central"}]}